     3.03           OBSERVATION DATA    M: Mixed            RINEX VERSION / TYPE
RTKCONV demo5 b34d                      20240326 055808 UTC PGM / RUN BY / DATE 
format: RINEX                                               COMMENT             
log: E:\Ongoing\5G+±±¶·ÂÛÎÄ\BDS+5GFusion\data\case17\case17_COMMENT             
0000                                                        MARKER NAME         
                                                            MARKER NUMBER       
                                                            MARKER TYPE         
                                                            OBSERVER / AGENCY   
3654395             SEPT MOSAIC-X5C     4.12.1              REC # / TYPE / VERS 
Unknown                                                     ANT # / TYPE        
 -2170089.9314  4385056.1269  4078118.7838                  APPROX POSITION XYZ 
        0.0000        0.0000        0.0000                  ANTENNA: DELTA H/E/N
G    7 C1C L1C S1C C2W L2W S2W C2L                          SYS / # / OBS TYPES 
R    6 C1C L1C S1C C2C L2C S2C                              SYS / # / OBS TYPES 
E    3 C1C L1C S1C                                          SYS / # / OBS TYPES 
C    6 C2I L2I S2I C7I L7I S7I                              SYS / # / OBS TYPES 
  2023    08    04    09    50   00.0000000     GPS         TIME OF FIRST OBS   
  2023    08    04    09    51   25.5000000     GPS         TIME OF LAST OBS    
G L1C                                                       SYS / PHASE SHIFT   
G L2W  0.00000                                              SYS / PHASE SHIFT   
R L1C                                                       SYS / PHASE SHIFT   
R L2C                                                       SYS / PHASE SHIFT   
E L1C  0.50000                                              SYS / PHASE SHIFT   
C L2I                                                       SYS / PHASE SHIFT   
C L7I                                                       SYS / PHASE SHIFT   
  5 R05  1 R09 -2 R15  0 R16 -1 R21  4                      GLONASS SLOT / FRQ #
 C1C    0.000 C1P    0.000 C2C    0.000 C2P    0.000        GLONASS COD/PHS/BIS 
                                                            END OF HEADER       
> 2023 08 04 09 50 00.0000000  0 22                     
G12  23193714.285 1 121883794.35711        34.000    23193717.734 1  94974395.64611        24.000    23193714.607 1
G23  20199157.444 1 106147307.03711        50.000    20199158.945 1  82712175.79711        37.000    20199158.266 1
G24  20943247.863 1 110057543.14011        42.000    20943250.507 1  85759107.32211        32.000    20943250.757 1
R05  21158518.073 1 113104385.24411        37.000                                                  
R15  20868803.887 1 111516572.62411        38.000                                                  
R16  20136732.388 1 107566956.46911        53.000    20136740.018 1  83663100.00811        40.000  
E12  25463807.864 1 133813193.01711        40.000  
E19  24297779.316 1 127685696.88411        39.000  
E21  25750801.599 1 135321407.13211        33.000  
C01  37821078.340 1 196944287.59711        42.000                                                  
C02  38323414.869 1 199560081.69211        38.000    38323412.671 1 154312510.09611        31.000  
C03  37204257.179 1 193732337.80011        43.000    37204258.179 1 149806127.15611        33.000  
C04  38786290.216 1 201970384.94011        37.000                                                  
C05  39958103.306 1 208072341.08511        31.000                                                  
C06  36158768.556 1 188288286.83811        45.000    36158766.251 1              31        34.000  
C08  35996600.061 1 187443741.07111        45.000    35996596.898 1 144943383.49711        31.000  
C09  37359776.396 1 194542181.16811        42.000    37359778.612 1 150432349.15711        32.000  
C13  35815906.946 1 186502819.26911        49.000    35815912.468 1 144215833.35111        32.000  
C14  21711406.389 1 113056995.05011        43.000    21711406.425 1  87422849.78511        35.000  
C16  36391263.093 1 189498861.46911        45.000    36391268.347 1 146532554.66911        30.000  
C24  22195843.732 1 115579588.31911        50.000                                                  
C26  23315667.454 1 121410837.12911        39.000                                                  
> 2023 08 04 09 50 00.1000000  0 22                     
G12  23193664.538 1 121883533.400 1        34.000    23193668.076 1  94974192.273 1        23.000    23193664.985 1
G23  20199169.774 1 106147371.709 1        50.000    20199171.257 1  82712226.193 1        37.000    20199170.596 1
G24  20943289.819 1 110057763.702 1        41.000    20943292.464 1  85759279.207 1        32.000    20943292.732 1
R05  21158553.847 1 113104576.042 1        37.000                                                  
R15  20868838.338 1 111516756.558 1        38.000                                                  
R16  20136688.287 1 107566720.849 1        53.000    20136695.881 1  83662916.744 1        40.000  
E12  25463851.072 1 133813420.000 1        40.000  
E19  24297791.306 1 127685759.819 1        39.000  
E21  25750767.862 1 135321229.689 1        33.000  
C01  37821079.483 1 196944293.715 1        42.000                                                  
C02  38323415.280 1 199560083.960 1        38.000    38323413.189 1 154312511.861 1        31.000  
C03  37204258.126 1 193732342.859 1        43.000    37204259.109 1 149806131.052 1        32.000  
C04  38786290.984 1 201970388.761 1        37.000                                                  
C05  39958103.217 1 208072340.968 1        31.000                                                  
C06  36158762.588 1 188288255.809 1        45.000    36158760.158 1              31        34.000  
C08  35996614.946 1 187443818.734 1        45.000    35996611.890 1 144943443.547 1        31.000  
C09  37359767.926 1 194542136.999 1        42.000    37359770.231 1 150432315.000 1        32.000  
C13  35815916.077 1 186502866.828 1        49.000    35815921.563 1 144215870.120 1        32.000  
C14  21711410.178 1 113057014.675 1        43.000    21711410.303 1  87422864.969 1        35.000  
C16  36391259.609 1 189498843.258 1        45.000    36391264.648 1 146532540.562 1        30.000  
C24  22195815.910 1 115579443.436 1        50.000                                                  
C26  23315696.599 1 121410988.190 1        39.000                                                  
> 2023 08 04 09 50 00.2000000  0 22                     
G12  23193614.826 1 121883272.439 1        34.000    23193618.418 1  94973988.936 1        24.000    23193615.791 1
G23  20199182.068 1 106147436.390 1        50.000    20199183.551 1  82712276.608 1        37.000    20199182.890 1
G24  20943331.758 1 110057984.281 1        42.000    20943334.438 1  85759451.091 1        32.000    20943334.777 1
R05  21158589.620 1 113104766.844 1        37.000                                                  
R15  20868872.665 1 111516940.480 1        38.000                                                  
R16  20136644.151 1 107566485.238 1        53.000    20136651.745 1  83662733.488 1        40.000  
E12  25463894.261 1 133813646.982 1        40.000  
E19  24297803.278 1 127685822.752 1        39.000  
E21  25750734.108 1 135321052.284 1        33.000  
C01  37821080.645 1 196944299.841 1        42.000                                                  
C02  38323415.691 1 199560086.243 1        38.000    38323413.636 1 154312513.619 1        31.000  
C03  37204259.126 1 193732347.916 1        43.000    37204260.145 1 149806134.992 1        33.000  
C04  38786291.699 1 201970392.587 1        37.000                                                  
C05  39958103.092 1 208072340.811 1        31.000                                                  
C06  36158756.638 1 188288224.766 1        45.000    36158754.118 1              31        34.000  
C08  35996629.831 1 187443896.404 1        45.000    35996626.632 1 144943503.576 1        31.000  
C09  37359759.474 1 194542092.824 1        42.000    37359761.708 1 150432280.868 1        32.000  
C13  35815925.226 1 186502914.388 1        49.000    35815930.605 1 144215906.881 1        32.000  
C14  21711413.948 1 113057034.296 1        43.000    21711414.055 1  87422880.146 1        35.000  
C16  36391256.106 1 189498825.052 1        45.000    36391261.092 1 146532526.477 1        30.000  
C24  22195788.088 1 115579298.560 1        50.000                                                  
C26  23315725.636 1 121411139.234 1        39.000                                                  
> 2023 08 04 09 50 00.3000000  0 22                     
G12  23193565.079 1 121883011.514 1        34.000    23193568.760 1  94973785.636 1        24.000    23193566.258 1
G23  20199194.380 1 106147501.101 1        50.000    20199195.863 1  82712327.029 1        37.000    20199195.309 1
G24  20943373.803 1 110058204.882 1        42.000    20943376.430 1  85759623.010 1        32.000    20943376.770 1
R05  21158625.341 1 113104957.684 1        37.000                                                  
R15  20868907.134 1 111517124.441 1        38.000                                                  
R16  20136600.050 1 107566249.657 1        53.000    20136607.662 1  83662550.254 1        40.000  
E12  25463937.433 1 133813873.988 1        40.000  
E19  24297815.286 1 127685885.710 1        39.000  
E21  25750700.353 1 135320874.879 1        33.000  
C01  37821081.842 1 196944305.997 1        42.000                                                  
C02  38323416.084 1 199560088.549 1        39.000    38323414.100 1 154312515.375 1        31.000  
C03  37204260.091 1 193732352.987 1        43.000    37204261.163 1 149806138.884 1        33.000  
C04  38786292.539 1 201970396.446 1        37.000                                                  
C05  39958103.020 1 208072340.768 1        31.000                                                  
C06  36158750.669 1 188288193.755 1        45.000    36158748.239 1              31        34.000  
C08  35996644.769 1 187443974.102 1        45.000    35996641.571 1 144943563.685 1        31.000  
C09  37359750.986 1 194542048.690 1        42.000    37359753.184 1 150432246.725 1        32.000  
C13  35815934.339 1 186502961.970 1        50.000    35815939.790 1 144215943.706 1        32.000  
C14  21711417.718 1 113057053.941 1        43.000    21711417.718 1  87422895.337 1        35.000  
C16  36391252.586 1 189498806.870 1        45.000    36391257.804 1 146532512.454 1        30.000  
C24  22195760.266 1 115579153.712 1        50.000                                                  
C26  23315754.655 1 121411290.322 1        39.000                                                  
> 2023 08 04 09 50 00.4000000  0 22                     
G12  23193515.421 1 121882750.627 1        34.000    23193519.102 1  94973582.386 1        24.000    23193516.922 1
G23  20199206.691 1 106147565.844 1        50.000    20199208.192 1  82712377.485 1        37.000    20199207.638 1
G24  20943415.778 1 110058425.520 1        42.000    20943418.404 1  85759794.911 1        32.000    20943418.798 1
R05  21158661.132 1 113105148.548 1        37.000                                                  
R15  20868941.603 1 111517308.456 1        38.000                                                  
R16  20136555.949 1 107566014.117 1        52.000    20136563.526 1  83662367.068 1        40.000  
E12  25463980.622 1 133814101.033 1        40.000  
E19  24297827.259 1 127685948.701 1        39.000  
E21  25750666.581 1 135320697.530 1        32.000  
C01  37821082.986 1 196944312.182 1        42.000                                                  
C02  38323416.477 1 199560090.898 1        39.000    38323414.601 1 154312517.207 1        31.000  
C03  37204261.092 1 193732358.093 1        43.000    37204262.236 1 149806142.828 1        33.000  
C04  38786293.361 1 201970400.319 1        37.000                                                  
C05  39958103.181 1 208072340.759 1        31.000                                                  
C06  36158744.683 1 188288162.769 1        45.000    36158742.271 1              31        34.000  
C08  35996659.708 1 187444051.827 1        45.000    35996656.599 1 144943623.762 1        31.000  
C09  37359742.463 1 194542004.585 1        42.000    37359744.714 1 150432212.634 1        32.000  
C13  35815943.471 1 186503009.591 1        49.000    35815948.903 1 144215980.516 1        32.000  
C14  21711421.507 1 113057073.630 1        43.000    21711421.560 1  87422910.550 1        35.000  
C16  36391249.084 1 189498788.725 1        45.000    36391254.248 1 146532498.425 1        30.000  
C24  22195732.444 1 115579008.902 1        50.000                                                  
C26  23315783.692 1 121411441.422 1        39.000                                                  
> 2023 08 04 09 50 00.5000000  0 22                     
G12  23193465.549 1 121882489.701 1        34.000    23193469.444 1  94973378.965 1        24.000    23193467.425 1
G23  20199219.003 1 106147630.560 1        50.000    20199220.504 1  82712427.907 1        37.000    20199219.968 1
G24  20943457.734 1 110058646.132 1        41.000    20943460.397 1  85759966.810 1        32.000    20943460.754 1
R05  21158696.888 1 113105339.365 1        37.000                                                  
R15  20868976.055 1 111517492.441 1        38.000                                                  
R16  20136511.848 1 107565778.545 1        52.000    20136519.478 1  83662183.841 1        40.000  
E12  25464023.794 1 133814328.044 1        40.000  
E19  24297839.195 1 127686011.642 1        39.000  
E21  25750632.862 1 135320520.131 1        32.000  
C01  37821084.201 1 196944318.332 1        41.000                                                  
C02  38323416.888 1 199560093.195 1        38.000    38323414.904 1 154312518.995 1        31.000  
C03  37204262.075 1 193732363.156 1        42.000    37204263.272 1 149806146.776 1        33.000  
C04  38786294.200 1 201970404.148 1        37.000                                                  
C05  39958103.163 1 208072340.669 1        31.000                                                  
C06  36158738.697 1 188288131.755 1        45.000    36158736.249 1              31        34.000  
C08  35996674.611 1 187444129.520 1        45.000    35996671.662 1 144943683.877 1        31.000  
C09  37359734.011 1 194541960.448 1        42.000    37359736.334 1 150432178.479 1        32.000  
C13  35815952.619 1 186503057.180 1        49.000    35815958.141 1 144216017.294 1        32.000  
C14  21711425.313 1 113057093.283 1        43.000    21711425.277 1  87422925.757 1        35.000  
C16  36391245.564 1 189498770.537 1        45.000    36391250.764 1 146532484.314 1        30.000  
C24  22195704.658 1 115578864.057 1        50.000                                                  
C26  23315812.747 1 121411592.507 1        39.000                                                  
> 2023 08 04 09 50 00.6000000  0 22                     
G12  23193415.891 1 121882228.773 1        34.000    23193419.804 1  94973175.750 1        24.000    23193418.196 1
G23  20199231.333 1 106147695.273 1        50.000    20199232.816 1  82712478.337 1        37.000    20199232.298 1
G24  20943499.744 1 110058866.720 1        41.000    20943502.371 1  85760138.704 1        32.000    20943502.746 1
R05  21158732.537 1 113105530.193 1        37.000                                                  
R15  20869010.560 1 111517676.411 1        38.000                                                  
R16  20136467.730 1 107565542.970 1        52.000    20136475.378 1  83662000.597 1        40.000  
E12  25464067.019 1 133814555.053 1        40.000  
E19  24297851.203 1 127686074.595 1        39.000  
E21  25750599.125 1 135320342.749 1        32.000  
C01  37821085.380 1 196944324.470 1        42.000                                                  
C02  38323417.352 1 199560095.481 1        38.000    38323415.190 1 154312520.758 1        31.000  
C03  37204263.058 1 193732368.209 1        42.000    37204264.165 1 149806150.684 1        33.000  
C04  38786294.897 1 201970407.975 1        37.000                                                  
C05  39958103.217 1 208072340.582 1        31.000                                                  
C06  36158732.765 1 188288100.735 1        45.000    36158730.245 1              31        34.000  
C08  35996689.513 1 187444207.189 1        45.000    35996686.547 1 144943743.900 1        31.000  
C09  37359725.541 1 194541916.285 1        42.000    37359727.774 1 150432144.348 1        31.000  
C13  35815961.768 1 186503104.748 1        49.000    35815967.308 1 144216054.088 1        32.000  
C14  21711429.101 1 113057112.911 1        42.000    21711429.012 1  87422940.932 1        35.000  
C16  36391242.079 1 189498752.340 1        45.000    36391246.957 1 146532470.241 1        30.000  
C24  22195676.836 1 115578719.204 1        50.000                                                  
C26  23315841.892 1 121411743.600 1        39.000                                                  
> 2023 08 04 09 50 00.7000000  0 22                     
G12  23193366.340 1 121881967.842 1        34.000    23193370.146 1  94972972.344 1        24.000    23193368.502 1
G23  20199243.662 1 106147759.984 1        50.000    20199245.128 1  82712528.745 1        37.000    20199244.574 1
G24  20943541.683 1 110059087.326 1        41.000    20943544.363 1  85760310.609 1        32.000    20943544.846 1
R05  21158768.471 1 113105721.007 1        37.000                                                  
R15  20869045.029 1 111517860.390 1        38.000                                                  
R16  20136423.629 1 107565307.400 1        52.000    20136431.366 1  83661817.397 1        40.000  
E12  25464110.190 1 133814782.051 1        40.000  
E19  24297863.175 1 127686137.518 1        39.000  
E21  25750565.299 1 135320165.347 1        32.000  
C01  37821086.577 1 196944330.606 1        42.000                                                  
C02  38323417.799 1 199560097.766 1        38.000    38323415.601 1 154312522.532 1        31.000  
C03  37204264.023 1 193732373.272 1        43.000    37204265.130 1 149806154.567 1        33.000  
C04  38786295.701 1 201970411.831 1        37.000                                                  
C05  39958103.217 1 208072340.442 1        31.000                                                  
C06  36158726.814 1 188288069.700 1        45.000    36158724.366 1              31        34.000  
C08  35996704.470 1 187444284.870 1        45.000    35996701.539 1 144943804.002 1        31.000  
C09  37359717.071 1 194541872.136 1        42.000    37359719.412 1 150432110.202 1        31.000  
C13  35815970.900 1 186503152.319 1        49.000    35815976.224 1 144216090.862 1        32.000  
C14  21711432.853 1 113057132.556 1        43.000    21711432.853 1  87422956.122 1        35.000  
C16  36391238.577 1 189498734.144 1        45.000    36391243.759 1 146532456.242 1        30.000  
C24  22195649.031 1 115578574.359 1        50.000                                                  
C26  23315870.911 1 121411894.668 1        39.000                                                  
> 2023 08 04 09 50 00.8000000  0 22                     
G12  23193316.825 1 121881706.873 1        34.000    23193320.488 1  94972769.008 1        24.000    23193318.665 1
G23  20199255.992 1 106147824.674 1        50.000    20199257.439 1  82712579.141 1        37.000    20199256.975 1
G24  20943583.657 1 110059307.897 1        41.000    20943586.338 1  85760482.496 1        32.000    20943586.838 1
R05  21158804.335 1 113105911.811 1        37.000                                                  
R15  20869079.320 1 111518044.345 1        38.000                                                  
R16  20136379.493 1 107565071.810 1        52.000    20136387.319 1  83661634.156 1        40.000  
E12  25464153.380 1 133815009.024 1        40.000  
E19  24297875.166 1 127686200.453 1        39.000  
E21  25750531.526 1 135319987.898 1        32.000  
C01  37821087.793 1 196944336.709 1        42.000                                                  
C02  38323418.210 1 199560100.020 1        39.000    38323415.941 1 154312524.283 1        31.000  
C03  37204264.970 1 193732378.311 1        43.000    37204266.042 1 149806158.475 1        33.000  
C04  38786296.416 1 201970415.634 1        37.000                                                  
C05  39958103.217 1 208072340.302 1        31.000                                                  
C06  36158720.846 1 188288038.642 1        45.000    36158718.380 1              31        34.000  
C08  35996719.408 1 187444362.531 1        45.000    35996716.281 1 144943864.034 1        31.000  
C09  37359708.583 1 194541827.950 1        42.000    37359710.995 1 150432076.032 1        32.000  
C13  35815980.048 1 186503199.864 1        49.000    35815985.213 1 144216127.645 1        32.000  
C14  21711436.552 1 113057152.177 1        43.000    21711436.588 1  87422971.293 1        35.000  
C16  36391235.075 1 189498715.921 1        45.000    36391240.149 1 146532442.103 1        30.000  
C24  22195621.227 1 115578429.491 1        50.000                                                  
C26  23315899.877 1 121412045.732 1        39.000                                                  
> 2023 08 04 09 50 00.9000000  0 22                     
G12  23193267.131 1 121881445.933 1        34.000    23193270.830 1  94972559.978 1         7.000                  
G23  20199268.286 1 106147889.375 1        50.000    20199269.733 1  82712629.595 1        37.000    20199269.304 1
G24  20943625.632 1 110059528.491 1        41.000    20943628.330 1  85760654.378 1        32.000    20943628.812 1
R05  21158840.126 1 113106102.619 1        37.000                                                  
R15  20869113.753 1 111518228.321 1        38.000                                                  
R16  20136335.392 1 107564836.238 1        52.000    20136343.218 1  83661450.928 1        40.000  
E12  25464196.551 1 133815236.016 1        40.000  
E19  24297887.138 1 127686263.359 1        39.000  
E21  25750497.897 1 135319810.511 1        32.000  
C01  37821088.972 1 196944342.812 1        42.000                                                  
C02  38323418.603 1 199560102.311 1        39.000    38323416.388 1 154312526.017 1        31.000  
C03  37204265.935 1 193732383.333 1        43.000    37204267.042 1 149806162.389 1        33.000  
C04  38786297.131 1 201970419.458 1        37.000                                                  
C05  39958103.199 1 208072340.206 1        31.000                                                  
C06  36158714.878 1 188288007.596 1        45.000    36158712.448 1              31        34.000  
C08  35996734.347 1 187444440.201 1        45.000    35996731.113 1 144943924.088 1        31.000  
C09  37359700.095 1 194541783.778 1        42.000    37359702.436 1 150432041.882 1        32.000  
C13  35815989.162 1 186503247.421 1        49.000    35815994.576 1 144216164.423 1        32.000  
C14  21711440.323 1 113057171.805 1        43.000    21711440.358 1  87422986.468 1        35.000  
C16  36391231.572 1 189498697.703 1        45.000    36391236.504 1 146532428.017 1        30.000  
C24  22195593.405 1 115578284.628 1        50.000                                                  
C26  23315928.896 1 121412196.808 1        39.000                                                  
> 2023 08 04 09 50 01.0000000  0 22                     
G12  23193217.473 1 121881184.981 1        34.000    23193221.172 1  94972356.644 1         7.000                  
G23  20199280.598 1 106147954.086 1        50.000    20199282.045 1  82712680.000 1        37.000    20199281.473 1
G24  20943667.534 1 110059749.088 1        41.000    20943670.304 1  85760826.279 1        33.000    20943670.822 1
R05  21158875.775 1 113106293.417 1        37.000                                                  
R15  20869148.223 1 111518412.299 1        38.000                                                  
R16  20136291.273 1 107564600.671 1        52.000    20136299.153 1  83661267.705 1        40.000  
E12  25464239.741 1 133815463.001 1        40.000  
E19  24297899.128 1 127686326.279 1        39.000  
E21  25750464.160 1 135319633.123 1        32.000  
C01  37821090.169 1 196944348.925 1        42.000                                                  
C02  38323418.996 1 199560104.565 1        39.000    38323416.959 1 154312527.782 1        31.000  
C03  37204266.935 1 193732388.369 1        43.000    37204268.061 1 149806166.266 1        33.000  
C04  38786297.881 1 201970423.264 1        37.000                                                  
C05  39958103.181 1 208072340.099 1        31.000                                                  
C06  36158708.927 1 188287976.550 1        45.000    36158707.516 1              31        34.000  
C08  35996749.267 1 187444517.864 1        46.000    35996745.926 1 144943984.170 1        31.000  
C09  37359691.661 1 194541739.594 1        42.000    37359694.234 1 150432007.706 1        32.000  
C13  35815998.311 1 186503294.980 1        50.000    35816003.832 1 144216201.177 1        32.000  
C14  21711444.075 1 113057191.432 1        43.000    21711444.021 1  87423001.658 1        35.000  
C16  36391228.034 1 189498679.483 1        45.000    36391233.091 1 146532413.912 1        30.000  
C24  22195565.619 1 115578139.778 1        50.000                                                  
C26  23315957.898 1 121412347.870 1        39.000                                                  
> 2023 08 04 09 50 01.1000000  0 22                     
G12  23193167.958 1 121880924.018 1        34.000    23193171.514 1  94972158.972 1        24.000    23193169.691 1
G23  20199292.909 1 106148018.782 1        50.000    20199294.357 1  82712730.424 1        37.000    20199293.767 1
G24  20943709.527 1 110059969.671 1        41.000    20943712.278 1  85760998.136 1        32.000    20943712.636 1
R05  21158911.531 1 113106484.225 1        37.000                                                  
R15  20869182.746 1 111518596.272 1        38.000                                                  
R16  20136247.172 1 107564365.090 1        52.000    20136255.088 1  83661084.485 1        40.000  
E12  25464282.894 1 133815689.972 1        40.000  
E19  24297911.064 1 127686389.179 1        39.000  
E21  25750430.477 1 135319455.695 1        33.000  
C01  37821091.348 1 196944355.025 1        42.000                                                  
C02  38323419.354 1 199560106.818 1        39.000    38323417.406 1 154312529.531 1        31.000  
C03  37204267.882 1 193732393.388 1        43.000    37204269.151 1 149806170.149 1        33.000  
C04  38786298.632 1 201970427.059 1        37.000                                                  
C05  39958103.127 1 208072339.980 1        31.000                                                  
C06  36158702.941 1 188287945.489 1        45.000    36158701.422 1              31        34.000  
C08  35996764.152 1 187444595.513 1        45.000    35996760.972 1 144944044.190 1        32.000  
C09  37359683.173 1 194541695.402 1        42.000    37359685.836 1 150431973.531 1        32.000  
C13  35816007.406 1 186503342.522 1        50.000    35816012.892 1 144216237.955 1        32.000  
C14  21711447.863 1 113057211.048 1        43.000    21711447.845 1  87423016.815 1        35.000  
C16  36391224.550 1 189498661.257 1        45.000    36391229.589 1 146532399.864 1        30.000  
C24  22195537.797 1 115577994.907 1        50.000                                                  
C26  23315986.917 1 121412498.943 1        39.000                                                  
> 2023 08 04 09 50 01.2000000  0 22                     
G12  23193118.336 1 121880663.072 1        34.000    23193121.856 1  94971955.761 1        24.000    23193120.176 1
G23  20199305.221 1 106148083.483 1        50.000    20199306.669 1  82712780.820 1        37.000    20199306.150 1
G24  20943751.483 1 110060190.250 1        41.000    20943754.253 1  85761170.044 1        32.000    20943754.574 1
R05  21158947.394 1 113106675.011 1        37.000                                                  
R15  20869217.090 1 111518780.245 1        38.000                                                  
R16  20136203.072 1 107564129.518 1        52.000    20136210.898 1  83660901.271 1        40.000  
E12  25464326.120 1 133815916.954 1        40.000  
E19  24297923.037 1 127686452.103 1        39.000  
E21  25750396.669 1 135319278.249 1        33.000  
C01  37821092.564 1 196944361.120 1        42.000                                                  
C02  38323419.747 1 199560109.054 1        39.000    38323417.763 1 154312531.272 1        31.000  
C03  37204268.865 1 193732398.404 1        43.000    37204270.098 1 149806174.034 1        33.000  
C04  38786299.400 1 201970430.848 1        37.000                                                  
C05  39958103.074 1 208072339.855 1        31.000                                                  
C06  36158696.991 1 188287914.419 1        45.000    36158695.436 1              31        34.000  
C08  35996779.037 1 187444673.163 1        45.000    35996775.982 1 144944104.225 1        32.000  
C09  37359674.703 1 194541651.215 1        42.000    37359677.420 1 150431939.370 1        32.000  
C13  35816016.537 1 186503390.067 1        50.000    35816021.880 1 144216274.713 1        32.000  
C14  21711451.669 1 113057230.667 1        43.000    21711451.562 1  87423031.968 1        35.000  
C16  36391221.065 1 189498643.026 1        45.000    36391226.176 1 146532385.761 1        30.000  
C24  22195509.975 1 115577850.047 1        50.000                                                  
C26  23316015.900 1 121412650.005 1        39.000                                                  
> 2023 08 04 09 50 01.3000000  0 22                     
G12  23193068.517 1 121880402.100 1        34.000    23193072.198 1  94971746.608 1         7.000                  
G23  20199317.533 1 106148148.167 1        50.000    20199318.980 1  82712831.242 1        37.000    20199318.462 1
G24  20943793.440 1 110060410.809 1        41.000    20943796.245 1  85761341.917 1        32.000    20943796.638 1
R05  21158983.132 1 113106865.759 1        37.000                                                  
R15  20869251.524 1 111518964.218 1        38.000                                                  
R16  20136158.953 1 107563893.931 1        52.000    20136166.762 1  83660718.022 1        40.000  
E12  25464369.309 1 133816143.913 1        40.000  
E19  24297935.062 1 127686514.988 1        39.000  
E21  25750362.968 1 135319100.817 1        32.000  
C01  37821093.707 1 196944367.188 1        42.000                                                  
C02  38323420.158 1 199560111.279 1        38.000    38323418.210 1 154312532.958 1        31.000  
C03  37204269.848 1 193732403.396 1        43.000    37204270.920 1 149806177.875 1        33.000  
C04  38786300.097 1 201970434.622 1        37.000                                                  
C05  39958102.967 1 208072339.671 1        31.000                                                  
C06  36158691.023 1 188287883.332 1        45.000    36158689.504 1              31        34.000  
C08  35996793.940 1 187444750.797 1        45.000    35996790.884 1 144944164.268 1        31.000  
C09  37359666.234 1 194541606.994 1        42.000    37359668.842 1 150431905.162 1        32.000  
C13  35816025.686 1 186503437.583 1        50.000    35816031.029 1 144216311.455 1        32.000  
C14  21711455.422 1 113057250.256 1        43.000    21711455.297 1  87423047.132 1        35.000  
C16  36391217.563 1 189498624.765 1        45.000    36391222.924 1 146532371.620 1        30.000  
C24  22195482.171 1 115577705.165 1        50.000                                                  
C26  23316044.920 1 121412801.058 1        39.000                                                  
> 2023 08 04 09 50 01.4000000  0 22                     
G12  23193018.894 1 121880141.151 1        34.000    23193022.540 1  94971548.965 1        24.000    23193020.646 1
G23  20199329.845 1 106148212.872 1        50.000    20199331.292 1  82712881.642 1        37.000    20199330.702 1
G24  20943835.467 1 110060631.397 1        41.000    20943838.237 1  85761513.775 1        32.000    20943838.541 1
R05  21159018.852 1 113107056.567 1        36.000                                                  
R15  20869286.118 1 111519148.188 1        38.000                                                  
R16  20136114.834 1 107563658.370 1        52.000    20136122.661 1  83660534.816 1        40.000  
E12  25464412.498 1 133816370.884 1        40.000  
E19  24297946.999 1 127686577.894 1        39.000  
E21  25750329.213 1 135318923.386 1        32.000  
C01  37821094.851 1 196944373.271 1        42.000                                                  
C02  38323420.533 1 199560113.532 1        38.000    38323418.568 1 154312534.694 1        32.000  
C03  37204270.813 1 193732408.401 1        43.000    37204272.117 1 149806181.728 1        33.000  
C04  38786300.848 1 201970438.408 1        37.000                                                  
C05  39958102.984 1 208072339.543 1        31.000                                                  
C06  36158685.072 1 188287852.257 1        45.000    36158683.571 1              31        34.000  
C08  35996808.843 1 187444828.446 1        45.000    35996805.841 1 144944224.293 1        31.000  
C09  37359657.728 1 194541562.807 1        42.000    37359660.408 1 150431871.001 1        32.000  
C13  35816034.799 1 186503485.125 1        50.000    35816040.392 1 144216348.218 1        32.000  
C14  21711459.228 1 113057269.872 1        43.000    21711459.085 1  87423062.322 1        35.000  
C16  36391214.078 1 189498606.522 1        45.000    36391219.421 1 146532357.527 1        31.000  
C24  22195454.348 1 115577560.302 1        50.000                                                  
C26  23316073.939 1 121412952.117 1        39.000                                                  
> 2023 08 04 09 50 01.5000000  0 22                     
G12  23192969.290 1 121879880.193 1        34.000    23192972.882 1  94971345.644 1        24.000    23192970.469 1
G23  20199342.156 1 106148277.591 1        50.000    20199343.586 1  82712932.078 1        37.000    20199342.996 1
G24  20943877.388 1 110060852.003 1        41.000    20943880.211 1  85761685.701 1        32.000    20943880.497 1
R05  21159054.751 1 113107247.383 1        36.000                                                  
R15  20869320.570 1 111519332.203 1        38.000                                                  
R16  20136070.716 1 107563422.828 1        52.000    20136078.542 1  83660351.607 1        40.000  
E12  25464455.706 1 133816597.890 1        40.000  
E19  24297958.989 1 127686640.808 1        39.000  
E21  25750295.405 1 135318745.993 1        32.000  
C01  37821096.030 1 196944379.369 1        42.000                                                  
C02  38323420.998 1 199560115.765 1        38.000    38323418.996 1 154312536.457 1        32.000  
C03  37204271.760 1 193732413.425 1        43.000    37204273.225 1 149806185.636 1        33.000  
C04  38786301.634 1 201970442.194 1        37.000                                                  
C05  39958102.841 1 208072339.384 1        31.000                                                  
C06  36158679.086 1 188287821.202 1        45.000    36158677.746 1              31        33.000  
C08  35996823.746 1 187444906.107 1        46.000    35996820.815 1 144944284.366 1        31.000  
C09  37359649.222 1 194541518.621 1        42.000    37359651.867 1 150431836.826 1        32.000  
C13  35816043.930 1 186503532.676 1        50.000    35816049.666 1 144216385.005 1        32.000  
C14  21711462.981 1 113057289.497 1        43.000    21711462.891 1  87423077.486 1        35.000  
C16  36391210.558 1 189498588.298 1        45.000    36391215.830 1 146532343.425 1        31.000  
C24  22195426.544 1 115577415.458 1        50.000                                                  
C26  23316102.976 1 121413103.204 1        39.000                                                  
> 2023 08 04 09 50 01.6000000  0 22                     
G12  23192919.632 1 121879619.283 1        34.000    23192923.242 1  94971142.337 1        24.000    23192920.758 1
G23  20199354.486 1 106148342.334 1        50.000    20199355.916 1  82712982.515 1        37.000    20199355.308 1
G24  20943919.363 1 110061072.621 1        41.000    20943922.204 1  85761857.578 1        32.000    20943922.561 1
R05  21159090.704 1 113107438.200 1        36.000                                                  
R15  20869355.075 1 111519516.238 1        38.000                                                  
R16  20136026.633 1 107563187.306 1        52.000    20136034.299 1  83660168.435 1        40.000  
E12  25464498.877 1 133816824.893 1        40.000  
E19  24297970.943 1 127686703.738 1        39.000  
E21  25750261.668 1 135318568.605 1        32.000  
C01  37821097.192 1 196944385.493 1        42.000                                                  
C02  38323421.462 1 199560118.036 1        39.000    38323419.425 1 154312538.222 1        32.000  
C03  37204272.725 1 193732418.467 1        43.000    37204274.136 1 149806189.519 1        33.000  
C04  38786302.384 1 201970446.012 1        37.000                                                  
C05  39958102.841 1 208072339.273 1        31.000                                                  
C06  36158673.118 1 188287790.159 1        45.000    36158671.760 1              31        34.000  
C08  35996838.630 1 187444983.785 1        46.000    35996835.664 1 144944344.447 1        31.000  
C09  37359640.770 1 194541474.449 1        42.000    37359643.308 1 150431802.672 1        32.000  
C13  35816053.079 1 186503580.244 1        50.000    35816058.761 1 144216421.786 1        31.000  
C14  21711466.751 1 113057309.156 1        43.000    21711466.644 1  87423092.661 1        35.000  
C16  36391207.020 1 189498570.084 1        45.000    36391212.166 1 146532329.309 1        31.000  
C24  22195398.740 1 115577270.636 1        50.000                                                  
C26  23316131.978 1 121413254.330 1        39.000                                                  
> 2023 08 04 09 50 01.7000000  0 22                     
G12  23192869.974 1 121879358.352 1        34.000    23192873.584 1  94970933.307 1         7.000                  
G23  20199366.798 1 106148407.059 1        50.000    20199368.227 1  82713032.955 1        37.000    20199367.620 1
G24  20943961.337 1 110061293.218 1        41.000    20943964.196 1  85762029.497 1        32.000    20943964.768 1
R05  21159126.227 1 113107629.010 1        36.000                                                  
R15  20869389.437 1 111519700.253 1        38.000                                                  
R16  20135982.532 1 107562951.773 1        52.000    20135990.091 1  83659985.240 1        40.000  
E12  25464542.085 1 133817051.876 1        40.000  
E19  24297982.916 1 127686766.658 1        39.000  
E21  25750227.842 1 135318391.203 1        32.000  
C01  37821098.389 1 196944391.576 1        42.000                                                  
C02  38323421.855 1 199560120.284 1        39.000    38323419.818 1 154312539.917 1        31.000  
C03  37204273.708 1 193732423.474 1        43.000    37204274.905 1 149806193.387 1        33.000  
C04  38786303.099 1 201970449.803 1        37.000                                                  
C05  39958102.877 1 208072339.139 1        31.000                                                  
C06  36158667.185 1 188287759.095 1        45.000    36158665.720 1              31        33.000  
C08  35996853.533 1 187445061.446 1        46.000    35996850.656 1 144944404.499 1        31.000  
C09  37359632.282 1 194541430.254 1        42.000    37359634.963 1 150431768.500 1        32.000  
C13  35816062.228 1 186503627.792 1        50.000    35816067.875 1 144216458.532 1        32.000  
C14  21711470.486 1 113057328.781 1        43.000    21711470.414 1  87423107.843 1        35.000  
C16  36391203.518 1 189498551.852 1        45.000    36391208.754 1 146532315.206 1        30.000  
C24  22195370.936 1 115577125.797 1        50.000                                                  
C26  23316160.979 1 121413405.403 1        39.000                                                  
> 2023 08 04 09 50 01.8000000  0 22                     
G12  23192820.405 1 121879097.432 1        34.000    23192823.926 1  94970735.734 1        24.000    23192821.317 1
G23  20199379.127 1 106148471.814 1        50.000    20199380.539 1  82713083.417 1        37.000    20199379.967 1
G24  20944003.365 1 110061513.851 1        41.000    20944006.206 1  85762201.414 1        32.000    20944006.814 1
R05  21159161.822 1 113107819.844 1        36.000                                                  
R15  20869423.906 1 111519884.292 1        38.000                                                  
R16  20135938.449 1 107562716.263 1        52.000    20135946.026 1  83659802.059 1        40.000  
E12  25464585.256 1 133817278.891 1        40.000  
E19  24297994.906 1 127686829.590 1        39.000  
E21  25750194.070 1 135318213.824 1        33.000  
C01  37821099.532 1 196944397.688 1        42.000                                                  
C02  38323422.302 1 199560122.549 1        39.000    38323420.390 1 154312541.684 1        32.000  
C03  37204274.655 1 193732428.514 1        43.000    37204275.852 1 149806197.281 1        33.000  
C04  38786303.885 1 201970453.621 1        37.000                                                  
C05  39958102.841 1 208072339.014 1        31.000                                                  
C06  36158661.199 1 188287728.055 1        45.000    36158659.698 1              31        33.000  
C08  35996868.454 1 187445139.124 1        46.000    35996865.631 1 144944464.520 1        31.000  
C09  37359623.777 1 194541386.082 1        42.000    37359626.546 1 150431734.350 1        32.000  
C13  35816071.359 1 186503675.360 1        50.000    35816077.149 1 144216495.320 1        32.000  
C14  21711474.292 1 113057348.426 1        43.000    21711474.292 1  87423123.056 1        35.000  
C16  36391200.016 1 189498533.644 1        46.000    36391205.501 1 146532301.153 1        30.000  
C24  22195343.132 1 115576980.981 1        50.000                                                  
C26  23316190.052 1 121413556.506 1        39.000                                                  
> 2023 08 04 09 50 01.9000000  0 22                     
G12  23192770.622 1 121878836.457 1        33.000    23192774.268 1  94970532.359 1        23.000    23192771.730 1
G23  20199391.457 1 106148536.521 1        50.000    20199392.851 1  82713133.837 1        37.000    20199392.333 1
G24  20944045.393 1 110061734.439 1        41.000    20944048.180 1  85762373.297 1        32.000    20944048.752 1
R05  21159197.507 1 113108010.616 1        37.000                                                  
R15  20869458.322 1 111520068.294 1        38.000                                                  
R16  20135894.349 1 107562480.714 1        52.000    20135901.961 1  83659618.864 1        40.000  
E12  25464628.428 1 133817505.870 1        40.000  
E19  24298006.860 1 127686892.467 1        39.000  
E21  25750160.262 1 135318036.367 1        32.000  
C01  37821100.730 1 196944403.756 1        42.000                                                  
C02  38323422.713 1 199560124.756 1        39.000    38323420.730 1 154312543.382 1        32.000  
C03  37204275.620 1 193732433.486 1        43.000    37204276.924 1 149806201.146 1        33.000  
C04  38786304.654 1 201970457.366 1        37.000                                                  
C05  39958102.752 1 208072338.831 1        31.000                                                  
C06  36158655.195 1 188287696.959 1        45.000    36158653.676 1              31        34.000  
C08  35996883.374 1 187445216.756 1        46.000    35996880.533 1 144944524.572 1        31.000  
C09  37359615.289 1 194541341.866 1        42.000    37359618.059 1 150431700.191 1        32.000  
C13  35816080.472 1 186503722.882 1        50.000    35816086.226 1 144216532.073 1        32.000  
C14  21711478.044 1 113057368.030 1        43.000    21711477.973 1  87423138.192 1        35.000  
C16  36391196.513 1 189498515.383 1        46.000    36391201.677 1 146532287.031 1        30.000  
C24  22195315.310 1 115576836.119 1        50.000                                                  
C26  23316219.125 1 121413707.573 1        39.000                                                  
> 2023 08 04 09 50 02.0000000  0 22                     
G12  23192720.911 1 121878575.552 1        33.000    23192724.627 1  94970329.095 1        24.000    23192722.376 1
G23  20199403.733 1 106148601.287 1        50.000    20199405.180 1  82713184.317 1        37.000    20199404.752 1
G24  20944087.385 1 110061955.080 1        41.000    20944090.190 1  85762545.207 1        32.000    20944090.744 1
R05  21159233.263 1 113108201.456 1        36.000                                                  
R15  20869492.791 1 111520252.354 1        38.000                                                  
R16  20135850.266 1 107562245.226 1        52.000    20135857.824 1  83659435.703 1        40.000  
E12  25464671.599 1 133817732.888 1        40.000  
E19  24298018.832 1 127686955.402 1        39.000  
E21  25750126.579 1 135317859.029 1        32.000  
C01  37821101.909 1 196944409.863 1        42.000                                                  
C02  38323423.106 1 199560127.027 1        38.000    38323421.159 1 154312545.154 1        31.000  
C03  37204276.620 1 193732438.522 1        43.000    37204277.835 1 149806205.027 1        33.000  
C04  38786305.386 1 201970461.176 1        37.000                                                  
C05  39958102.734 1 208072338.726 1        31.000                                                  
C06  36158649.227 1 188287665.921 1        45.000    36158647.672 1              31        34.000  
C08  35996898.277 1 187445294.449 1        45.000    35996895.382 1 144944584.647 1        31.000  
C09  37359606.801 1 194541297.709 1        42.000    37359609.410 1 150431666.025 1        32.000  
C13  35816089.586 1 186503770.453 1        50.000    35816095.214 1 144216568.852 1        32.000  
C14  21711481.832 1 113057387.692 1        43.000    21711481.832 1  87423153.394 1        35.000  
C16  36391193.011 1 189498497.172 1        45.000    36391197.978 1 146532272.942 1        30.000  
C24  22195287.488 1 115576691.318 1        50.000                                                  
C26  23316248.126 1 121413858.696 1        39.000                                                  
> 2023 08 04 09 50 02.1000000  0 22                     
G12  23192671.217 1 121878314.662 1        33.000    23192674.987 1  94970125.756 1        24.000    23192672.843 1
G23  20199416.098 1 106148666.083 1        50.000    20199417.510 1  82713234.796 1        37.000    20199417.135 1
G24  20944129.431 1 110062175.742 1        41.000    20944132.183 1  85762717.167 1        32.000    20944132.826 1
R05  21159269.126 1 113108392.318 1        36.000                                                  
R15  20869527.243 1 111520436.428 1        38.000                                                  
R16  20135806.165 1 107562009.770 1        52.000    20135813.777 1  83659252.562 1        40.000  
E12  25464714.807 1 133817959.932 1        40.000  
E19  24298030.840 1 127687018.378 1        39.000  
E21  25750092.753 1 135317681.703 1        32.000  
C01  37821103.088 1 196944416.004 1        42.000                                                  
C02  38323423.535 1 199560129.321 1        39.000    38323421.480 1 154312546.908 1        31.000  
C03  37204277.603 1 193732443.573 1        43.000    37204278.854 1 149806208.957 1        33.000  
C04  38786306.101 1 201970465.014 1        37.000                                                  
C05  39958102.770 1 208072338.598 1        31.000                                                  
C06  36158643.259 1 188287634.904 1        45.000    36158641.633 1              31        34.000  
C08  35996913.180 1 187445372.159 1        45.000    35996910.339 1 144944644.755 1        31.000  
C09  37359598.313 1 194541253.563 1        42.000    37359600.940 1 150431631.887 1        31.000  
C13  35816098.717 1 186503818.056 1        50.000    35816104.345 1 144216605.666 1        32.000  
C14  21711485.638 1 113057407.375 1        42.000    21711485.656 1  87423168.632 1        35.000  
C16  36391189.526 1 189498478.984 1        45.000    36391194.476 1 146532258.893 1        30.000  
C24  22195259.683 1 115576546.543 1        50.000                                                  
C26  23316277.163 1 121414009.856 1        39.000                                                  
> 2023 08 04 09 50 02.2000000  0 22                     
G12  23192621.648 1 121878053.781 1        33.000    23192625.329 1  94969922.497 1        24.000    23192623.632 1
G23  20199428.410 1 106148730.855 1        50.000    20199429.822 1  82713285.249 1        37.000    20199429.322 1
G24  20944171.423 1 110062396.398 1        41.000    20944174.193 1  85762889.084 1        32.000    20944174.657 1
R05  21159304.792 1 113108583.149 1        36.000                                                  
R15  20869561.641 1 111520620.518 1        38.000                                                  
R16  20135762.064 1 107561774.293 1        52.000    20135769.676 1  83659069.415 1        40.000  
E12  25464757.996 1 133818186.962 1        40.000  
E19  24298042.777 1 127687081.301 1        39.000  
E21  25750058.944 1 135317504.319 1        32.000  
C01  37821104.286 1 196944422.119 1        42.000                                                  
C02  38323423.982 1 199560131.587 1        38.000    38323421.909 1 154312548.700 1        32.000  
C03  37204278.604 1 193732448.609 1        43.000    37204279.712 1 149806212.838 1        33.000  
C04  38786306.816 1 201970468.829 1        37.000                                                  
C05  39958102.788 1 208072338.465 1        31.000                                                  
C06  36158637.308 1 188287603.861 1        45.000    36158635.593 1              31        34.000  
C08  35996928.083 1 187445449.840 1        45.000    35996924.938 1 144944704.801 1        31.000  
C09  37359589.843 1 194541209.397 1        42.000    37359592.524 1 150431597.712 1        31.000  
C13  35816107.866 1 186503865.627 1        50.000    35816113.494 1 144216642.462 1        31.000  
C14  21711489.373 1 113057427.031 1        43.000    21711489.462 1  87423183.834 1        36.000  
C16  36391186.006 1 189498460.778 1        45.000    36391190.849 1 146532244.827 1        30.000  
C24  22195231.915 1 115576401.747 1        50.000                                                  
C26  23316306.201 1 121414160.970 1        39.000                                                  
> 2023 08 04 09 50 02.3000000  0 22                     
G12  23192572.222 1 121877792.861 1        33.000    23192575.689 1  94969719.117 1        24.000    23192574.224 1
G23  20199440.740 1 106148795.612 1        50.000    20199442.151 1  82713335.737 1        37.000    20199441.580 1
G24  20944213.397 1 110062617.033 1        41.000    20944216.167 1  85763061.044 1        32.000    20944216.578 1
R05  21159340.495 1 113108773.957 1        36.000                                                  
R15  20869596.110 1 111520804.580 1        38.000                                                  
R16  20135717.981 1 107561538.807 1        52.000    20135725.558 1  83658886.257 1        40.000  
E12  25464801.168 1 133818413.973 1        40.000  
E19  24298054.749 1 127687144.219 1        39.000  
E21  25750025.190 1 135317326.914 1        32.000  
C01  37821105.465 1 196944428.199 1        42.000                                                  
C02  38323424.446 1 199560133.828 1        39.000    38323422.445 1 154312550.413 1        32.000  
C03  37204279.551 1 193732453.631 1        43.000    37204280.551 1 149806216.706 1        32.000  
C04  38786307.549 1 201970472.624 1        37.000                                                  
C05  39958102.752 1 208072338.357 1        31.000                                                  
C06  36158631.376 1 188287572.803 1        45.000    36158629.678 1              31        34.000  
C08  35996943.003 1 187445527.504 1        45.000    35996939.930 1 144944764.876 1        31.000  
C09  37359581.374 1 194541165.199 1        42.000    37359583.947 1 150431563.565 1        31.000  
C13  35816116.997 1 186503913.184 1        50.000    35816122.715 1 144216679.243 1        32.000  
C14  21711493.108 1 113057446.679 1        43.000    21711493.251 1  87423199.011 1        36.000  
C16  36391182.522 1 189498442.546 1        46.000    36391187.186 1 146532230.702 1        30.000  
C24  22195204.129 1 115576256.932 1        50.000                                                  
C26  23316335.220 1 121414312.073 1        39.000                                                  
> 2023 08 04 09 50 02.4000000  0 22                     
G12  23192522.493 1 121877531.910 1        33.000    23192526.031 1  94969515.863 1        24.000    23192525.155 1
G23  20199453.087 1 106148860.355 1        50.000    20199454.463 1  82713386.170 1        37.000    20199453.999 1
G24  20944255.425 1 110062837.642 1        41.000    20944258.159 1  85763232.938 1        32.000    20944258.606 1
R05  21159376.125 1 113108964.767 1        36.000                                                  
R15  20869630.579 1 111520988.622 1        38.000                                                  
R16  20135673.863 1 107561303.306 1        52.000    20135681.457 1  83658703.106 1        40.000  
E12  25464844.339 1 133818640.959 1        40.000  
E19  24298066.757 1 127687207.122 1        39.000  
E21  25749991.399 1 135317149.497 1        32.000  
C01  37821106.573 1 196944434.271 1        42.000                                                  
C02  38323424.893 1 199560136.050 1        39.000    38323422.838 1 154312552.142 1        32.000  
C03  37204280.516 1 193732458.612 1        43.000    37204281.516 1 149806220.566 1        33.000  
C04  38786308.263 1 201970476.380 1        37.000                                                  
C05  39958102.752 1 208072338.203 1        31.000                                                  
C06  36158625.408 1 188287541.722 1        45.000    36158623.728 1 145595793.22311        34.000  
C08  35996957.870 1 187445605.153 1        45.000    35996954.654 1 144944824.912 1        31.000  
C09  37359572.904 1 194541120.989 1        42.000    37359575.423 1 150431529.368 1        32.000  
C13  35816126.128 1 186503960.717 1        50.000    35816131.631 1 144216715.965 1        32.000  
C14  21711496.878 1 113057466.301 1        43.000    21711497.110 1  87423214.189 1        36.000  
C16  36391179.019 1 189498424.294 1        46.000    36391183.630 1 146532216.595 1        30.000  
C24  22195176.306 1 115576112.104 1        51.000                                                  
C26  23316364.221 1 121414463.187 1        39.000                                                  
> 2023 08 04 09 50 02.5000000  0 22                     
G12  23192472.853 1 121877270.990 1        33.000    23192476.373 1  94969312.524 1        25.000    23192475.515 1
G23  20199465.399 1 106148925.112 1        50.000    20199466.793 1  82713436.635 1        37.000    20199466.364 1
G24  20944297.435 1 110063058.268 1        41.000    20944300.134 1  85763404.848 1        32.000    20944300.634 1
R05  21159411.864 1 113109155.581 1        36.000                                                  
R15  20869664.959 1 111521172.696 1        38.000                                                  
R16  20135629.744 1 107561067.820 1        52.000    20135637.374 1  83658519.939 1        40.000  
E12  25464887.546 1 133818867.968 1        40.000  
E19  24298078.747 1 127687270.024 1        39.000  
E21  25749957.573 1 135316972.124 1        32.000  
C01  37821107.734 1 196944440.345 1        42.000                                                  
C02  38323425.358 1 199560138.283 1        39.000    38323423.106 1 154312553.853 1        32.000  
C03  37204281.481 1 193732463.613 1        43.000    37204282.463 1 149806224.434 1        33.000  
C04  38786309.014 1 201970480.140 1        37.000                                                  
C05  39958102.520 1 208072338.049 1        31.000                                                  
C06  36158619.439 1 188287510.649 1        45.000    36158617.795 1 145595769.198 1        34.000  
C08  35996972.755 1 187445682.811 1        45.000    35996969.610 1 144944884.971 1        31.000  
C09  37359564.416 1 194541076.805 1        42.000    37359566.953 1 150431495.193 1        32.000  
C13  35816135.259 1 186504008.265 1        50.000    35816140.619 1 144216752.745 1        32.000  
C14  21711500.684 1 113057485.925 1        43.000    21711500.899 1  87423229.377 1        35.000  
C16  36391175.499 1 189498406.057 1        46.000    36391180.074 1 146532202.499 1        30.000  
C24  22195148.484 1 115575967.288 1        51.000                                                  
C26  23316393.223 1 121414614.298 1        39.000                                                  
> 2023 08 04 09 50 02.6000000  0 22                     
G12  23192423.177 1 121877010.089 1        33.000    23192426.715 1  94969109.324 1        25.000    23192425.428 1
G23  20199477.729 1 106148989.905 1        50.000    20199479.123 1  82713487.127 1        37.000    20199478.712 1
G24  20944339.356 1 110063278.933 1        41.000    20944342.126 1  85763576.780 1        32.000    20944342.662 1
R05  21159447.566 1 113109346.436 1        36.000                                                  
R15  20869699.411 1 111521356.788 1        38.000                                                  
R16  20135585.625 1 107560832.370 1        52.000    20135593.327 1  83658336.814 1        40.000  
E12  25464930.754 1 133819094.988 1        40.000  
E19  24298090.648 1 127687332.968 1        39.000  
E21  25749923.908 1 135316794.775 1        32.000  
