% obs start : 2023/10/19 02:22:12.0
% obs end   : 2023/10/19 02:27:13.3
%
%  GPST              x-ecef(m)      y-ecef(m)      z-ecef(m)   Q  ns   sdx(m)   sdy(m)   sdz(m)  sdxy(m)  sdyz(m)  sdzx(m) age(s)  ratio    vx(m/s)    vy(m/s)    vz(m/s)      sdvx     sdvy     sdvz    sdvxy    sdvyz    sdvzx
2284 354132.000  -2169637.2178   4385199.8569   4078202.2427   2   6   0.9961   1.0078   0.6949  -0.4817   0.6473   0.2811   0.00    0.0    0.00000    0.00000    0.00000   0.00000  0.00000  0.00000  0.00000  0.00000  0.00000
2284 354132.100  -2169637.2990   4385199.8703   4078202.4148   2   6   0.7067   0.7134   0.4923  -0.3405   0.4578   0.2008   0.10    0.0    0.00000    0.00000    0.00000   0.00000  0.00000  0.00000  0.00000  0.00000  0.00000
2284 354132.200  -2169637.3358   4385199.8140   4078202.5071   2   6   0.5777   0.5828   0.4022  -0.2781   0.3739   0.1645   0.20    0.0    0.00000    0.00000    0.00000   0.00000  0.00000  0.00000  0.00000  0.00000  0.00000
2284 354132.300  -2169637.4119   4385199.8645   4078202.6694   2   6   0.5006   0.5049   0.3485  -0.2409   0.3239   0.1426   0.30    0.0    0.00000    0.00000    0.00000   0.00000  0.00000  0.00000  0.00000  0.00000  0.00000
2284 354132.400  -2169637.5720   4385200.0281   4078202.9142   2   5   0.4797   0.4523   0.3126  -0.2130   0.2905   0.1390   0.40    0.0    0.00000    0.00000    0.00000   0.00000  0.00000  0.00000  0.00000  0.00000  0.00000
2284 354132.500  -2169637.7218   4385200.0902   4078203.1058   2   6   0.4320   0.4127   0.2852  -0.1939   0.2650   0.1258   0.50    1.2    0.00000    0.00000    0.00000   0.00000  0.00000  0.00000  0.00000  0.00000  0.00000
2284 354132.600  -2169637.7241   4385199.8678   4078203.1450   2   6   0.3968   0.3822   0.2641  -0.1801   0.2454   0.1151  -0.40    1.0    0.00000    0.00000    0.00000   0.00000  0.00000  0.00000  0.00000  0.00000  0.00000
2284 354132.700  -2169637.7895   4385199.6639   4078203.2090   2   6   0.3690   0.3576   0.2471  -0.1688   0.2296   0.1068  -0.30    1.1    0.00000    0.00000    0.00000   0.00000  0.00000  0.00000  0.00000  0.00000  0.00000
2284 354132.800  -2169637.8843   4385199.4890   4078203.3126   2   6   0.3463   0.3372   0.2329  -0.1595   0.2165   0.1000  -0.20    1.1    0.00000    0.00000    0.00000   0.00000  0.00000  0.00000  0.00000  0.00000  0.00000
2284 354132.900  -2169637.9741   4385199.3997   4078203.4670   2   5   0.3403   0.3208   0.2215  -0.1522   0.2061   0.0974  -0.10    1.3    0.00000    0.00000    0.00000   0.00000  0.00000  0.00000  0.00000  0.00000  0.00000
2284 354133.000  -2169638.0260   4385199.2479   4078203.5606   2   5   0.3335   0.3061   0.2115  -0.1441   0.1968   0.0963   0.00    1.4    0.00000    0.00000    0.00000   0.00000  0.00000  0.00000  0.00000  0.00000  0.00000
2284 354133.100  -2169638.2393   4385199.3432   4078203.7930   2   5   0.3272   0.2932   0.2027  -0.1372   0.1886   0.0951   0.10    1.6    0.00000    0.00000    0.00000   0.00000  0.00000  0.00000  0.00000  0.00000  0.00000
2284 354133.200  -2169638.2879   4385199.2223   4078203.8992   2   5   0.3212   0.2819   0.1950  -0.1311   0.1814   0.0939   0.20    1.7    0.00000    0.00000    0.00000   0.00000  0.00000  0.00000  0.00000  0.00000  0.00000
2284 354133.300  -2169638.3869   4385199.1570   4078204.0099   2   5   0.3157   0.2718   0.1881  -0.1257   0.1750   0.0928   0.30    1.7    0.00000    0.00000    0.00000   0.00000  0.00000  0.00000  0.00000  0.00000  0.00000
2284 354133.400  -2169638.5482   4385199.1562   4078204.1557   2   5   0.3104   0.2628   0.1819  -0.1208   0.1693   0.0916   0.40    1.6    0.00000    0.00000    0.00000   0.00000  0.00000  0.00000  0.00000  0.00000  0.00000
2284 354133.500  -2169638.6697   4385199.1678   4078204.3163   2   5   0.3055   0.2546   0.1763  -0.1165   0.1641   0.0904   0.50    1.5    0.00000    0.00000    0.00000   0.00000  0.00000  0.00000  0.00000  0.00000  0.00000
2284 354133.600  -2169638.7162   4385199.1525   4078204.4350   2   5   0.3008   0.2472   0.1712  -0.1126   0.1593   0.0893  -0.40    1.6    0.00000    0.00000    0.00000   0.00000  0.00000  0.00000  0.00000  0.00000  0.00000
2284 354133.700  -2169638.7117   4385199.0378   4078204.4855   2   5   0.2963   0.2404   0.1665  -0.1090   0.1550   0.0882  -0.30    1.7    0.00000    0.00000    0.00000   0.00000  0.00000  0.00000  0.00000  0.00000  0.00000
2284 354133.800  -2169638.8111   4385198.9763   4078204.5740   2   5   0.2920   0.2341   0.1622  -0.1057   0.1510   0.0871  -0.20    1.8    0.00000    0.00000    0.00000   0.00000  0.00000  0.00000  0.00000  0.00000  0.00000
2284 354133.900  -2169638.9238   4385199.0079   4078204.7181   2   5   0.2879   0.2283   0.1582  -0.1027   0.1473   0.0860  -0.10    1.8    0.00000    0.00000    0.00000   0.00000  0.00000  0.00000  0.00000  0.00000  0.00000
2284 354134.000  -2169639.0204   4385198.8828   4078204.8154   2   5   0.2840   0.2229   0.1545  -0.1000   0.1439   0.0850   0.00    1.8    0.00000    0.00000    0.00000   0.00000  0.00000  0.00000  0.00000  0.00000  0.00000
2284 354134.100  -2169639.2076   4385198.8551   4078204.9771   2   5   0.2803   0.2179   0.1511  -0.0974   0.1407   0.0840   0.10    1.5    0.00000    0.00000    0.00000   0.00000  0.00000  0.00000  0.00000  0.00000  0.00000
2284 354134.200  -2169639.2645   4385198.7070   4078205.0544   2   5   0.2767   0.2133   0.1479  -0.0951   0.1378   0.0830   0.20    1.4    0.00000    0.00000    0.00000   0.00000  0.00000  0.00000  0.00000  0.00000  0.00000
2284 354134.300  -2169639.2917   4385198.6604   4078205.1502   2   5   0.2733   0.2089   0.1449  -0.0929   0.1350   0.0820   0.30    1.4    0.00000    0.00000    0.00000   0.00000  0.00000  0.00000  0.00000  0.00000  0.00000
2284 354134.400  -2169639.3855   4385198.5503   4078205.1474   2   6   0.2691   0.2026   0.1411  -0.0934   0.1309   0.0788   0.40    1.4    0.00000    0.00000    0.00000   0.00000  0.00000  0.00000  0.00000  0.00000  0.00000
2284 354134.500  -2169639.4914   4385198.5349   4078205.1669   2   6   0.2649   0.1960   0.1372  -0.0923   0.1266   0.0766   0.50    1.4    0.00000    0.00000    0.00000   0.00000  0.00000  0.00000  0.00000  0.00000  0.00000
2284 354134.600  -2169639.5901   4385198.4900   4078205.1616   2   6   0.2610   0.1905   0.1339  -0.0919   0.1230   0.0743  -0.40    1.3    0.00000    0.00000    0.00000   0.00000  0.00000  0.00000  0.00000  0.00000  0.00000
2284 354134.700  -2169639.7141   4385198.4294   4078205.1325   2   7   0.2544   0.1851   0.1298  -0.0941   0.1190   0.0675  -0.30    1.3    0.00000    0.00000    0.00000   0.00000  0.00000  0.00000  0.00000  0.00000  0.00000
2284 354134.800  -2169639.7697   4385198.3003   4078205.0773   2   8   0.2481   0.1803   0.1260  -0.0956   0.1154   0.0619  -0.20    1.2    0.00000    0.00000    0.00000   0.00000  0.00000  0.00000  0.00000  0.00000  0.00000
2284 354134.900  -2169639.9261   4385198.2604   4078205.1057   2   8   0.2423   0.1758   0.1225  -0.0963   0.1122   0.0571  -0.10    2.0    0.00000    0.00000    0.00000   0.00000  0.00000  0.00000  0.00000  0.00000  0.00000
2284 354135.000  -2169640.0550   4385198.1263   4078205.1236   2   8   0.2371   0.1717   0.1193  -0.0969   0.1092   0.0525   0.00    1.9    0.00000    0.00000    0.00000   0.00000  0.00000  0.00000  0.00000  0.00000  0.00000
2284 354135.100  -2169640.1704   4385197.9661   4078205.1640   2   8   0.2322   0.1680   0.1164  -0.0973   0.1066   0.0481   0.10    1.7    0.00000    0.00000    0.00000   0.00000  0.00000  0.00000  0.00000  0.00000  0.00000
2284 354135.200  -2169640.3477   4385197.8428   4078205.2359   2   8   0.2277   0.1645   0.1137  -0.0975   0.1041   0.0440   0.20    1.6    0.00000    0.00000    0.00000   0.00000  0.00000  0.00000  0.00000  0.00000  0.00000
2284 354135.300  -2169640.4831   4385197.6665   4078205.3038   2   8   0.2235   0.1613   0.1113  -0.0975   0.1019   0.0402   0.30    1.8    0.00000    0.00000    0.00000   0.00000  0.00000  0.00000  0.00000  0.00000  0.00000
2284 354135.400  -2169640.6888   4385197.5354   4078205.3966   2   7   0.2200   0.1584   0.1092  -0.0978   0.1000   0.0351   0.40    1.7    0.00000    0.00000    0.00000   0.00000  0.00000  0.00000  0.00000  0.00000  0.00000
2284 354135.500  -2169640.8382   4385197.4293   4078205.4676   2   7   0.2164   0.1556   0.1072  -0.0976   0.0981   0.0308   0.50    1.6    0.00000    0.00000    0.00000   0.00000  0.00000  0.00000  0.00000  0.00000  0.00000
2284 354135.600  -2169641.0187   4385197.3804   4078205.5261   2   7   0.2130   0.1529   0.1052  -0.0974   0.0963   0.0266  -0.40    1.6    0.00000    0.00000    0.00000   0.00000  0.00000  0.00000  0.00000  0.00000  0.00000
2284 354135.700  -2169641.0472   4385197.3078   4078205.5440   2   7   0.2098   0.1503   0.1034  -0.0970   0.0946   0.0221  -0.30    1.6    0.00000    0.00000    0.00000   0.00000  0.00000  0.00000  0.00000  0.00000  0.00000
2284 354135.800  -2169641.1491   4385197.3444   4078205.6112   2   7   0.2067   0.1479   0.1017  -0.0966   0.0930   0.0173  -0.20    1.5    0.00000    0.00000    0.00000   0.00000  0.00000  0.00000  0.00000  0.00000  0.00000
2284 354135.900  -2169641.3695   4385197.4174   4078205.6733   2   6   0.2055   0.1458   0.1004  -0.0958   0.0917   0.0172  -0.10    2.1    0.00000    0.00000    0.00000   0.00000  0.00000  0.00000  0.00000  0.00000  0.00000
2284 354136.000  -2169641.4031   4385197.4349   4078205.7006   2   6   0.2037   0.1437   0.0991  -0.0949   0.0905   0.0171   0.00    2.1    0.00000    0.00000    0.00000   0.00000  0.00000  0.00000  0.00000  0.00000  0.00000
2284 354136.100  -2169641.4191   4385197.3990   4078205.7089   2   6   0.2021   0.1417   0.0979  -0.0939   0.0893   0.0171   0.10    2.2    0.00000    0.00000    0.00000   0.00000  0.00000  0.00000  0.00000  0.00000  0.00000
2284 354136.200  -2169641.5338   4385197.3683   4078205.7613   2   6   0.2004   0.1398   0.0967  -0.0930   0.0881   0.0170   0.20    2.2    0.00000    0.00000    0.00000   0.00000  0.00000  0.00000  0.00000  0.00000  0.00000
2284 354136.300  -2169641.6185   4385197.2598   4078205.7931   2   6   0.1989   0.1379   0.0956  -0.0921   0.0871   0.0170   0.30    2.2    0.00000    0.00000    0.00000   0.00000  0.00000  0.00000  0.00000  0.00000  0.00000
2284 354136.400  -2169641.7522   4385197.1828   4078205.8432   2   6   0.1973   0.1362   0.0945  -0.0913   0.0860   0.0169   0.40    2.1    0.00000    0.00000    0.00000   0.00000  0.00000  0.00000  0.00000  0.00000  0.00000
2284 354136.500  -2169641.8175   4385197.0565   4078205.8739   2   6   0.1958   0.1345   0.0935  -0.0905   0.0850   0.0168   0.50    2.0    0.00000    0.00000    0.00000   0.00000  0.00000  0.00000  0.00000  0.00000  0.00000
2284 354136.600  -2169641.9816   4385197.0562   4078205.9633   2   6   0.1943   0.1329   0.0924  -0.0897   0.0840   0.0167  -0.40    1.9    0.00000    0.00000    0.00000   0.00000  0.00000  0.00000  0.00000  0.00000  0.00000
2284 354136.700  -2169642.0742   4385197.0640   4078205.9898   2   6   0.1929   0.1313   0.0914  -0.0889   0.0831   0.0166  -0.30    1.9    0.00000    0.00000    0.00000   0.00000  0.00000  0.00000  0.00000  0.00000  0.00000
2284 354136.800  -2169642.0402   4385197.0377   4078205.9864   2   6   0.1914   0.1298   0.0905  -0.0881   0.0822   0.0166  -0.20    1.9    0.00000    0.00000    0.00000   0.00000  0.00000  0.00000  0.00000  0.00000  0.00000
2284 354136.900  -2169642.0030   4385197.0197   4078205.9809   2   6   0.1900   0.1283   0.0896  -0.0874   0.0813   0.0165  -0.10    1.9    0.00000    0.00000    0.00000   0.00000  0.00000  0.00000  0.00000  0.00000  0.00000
2284 354137.000  -2169641.9967   4385197.0082   4078205.9810   2   6   0.1887   0.1269   0.0887  -0.0867   0.0804   0.0164   0.00    1.9    0.00000    0.00000    0.00000   0.00000  0.00000  0.00000  0.00000  0.00000  0.00000
2284 354137.100  -2169641.9920   4385196.9917   4078205.9839   2   6   0.1874   0.1255   0.0878  -0.0860   0.0796   0.0163   0.10    1.9    0.00000    0.00000    0.00000   0.00000  0.00000  0.00000  0.00000  0.00000  0.00000
2284 354137.200  -2169642.0040   4385196.9846   4078205.9930   2   6   0.1861   0.1242   0.0870  -0.0853   0.0788   0.0162   0.20    1.9    0.00000    0.00000    0.00000   0.00000  0.00000  0.00000  0.00000  0.00000  0.00000
2284 354137.300  -2169642.0108   4385196.9794   4078205.9962   2   6   0.1848   0.1229   0.0861  -0.0847   0.0781   0.0160   0.30    1.9    0.00000    0.00000    0.00000   0.00000  0.00000  0.00000  0.00000  0.00000  0.00000
2284 354137.400  -2169641.9980   4385196.9331   4078205.9816   2   6   0.1836   0.1217   0.0853  -0.0840   0.0773   0.0159   0.40    1.9    0.00000    0.00000    0.00000   0.00000  0.00000  0.00000  0.00000  0.00000  0.00000
2284 354137.500  -2169642.0575   4385196.8796   4078205.9808   2   6   0.1824   0.1205   0.0846  -0.0834   0.0766   0.0158   0.50    1.9    0.00000    0.00000    0.00000   0.00000  0.00000  0.00000  0.00000  0.00000  0.00000
2284 354137.600  -2169642.0951   4385196.7815   4078205.9529   2   6   0.1818   0.1197   0.0844  -0.0837   0.0765   0.0098  -0.40    1.6    0.00000    0.00000    0.00000   0.00000  0.00000  0.00000  0.00000  0.00000  0.00000
2284 354137.700  -2169642.1738   4385196.7490   4078205.9592   2   6   0.1803   0.1184   0.0834  -0.0827   0.0755   0.0130  -0.30    1.7    0.00000    0.00000    0.00000   0.00000  0.00000  0.00000  0.00000  0.00000  0.00000
2284 354137.800  -2169642.2312   4385196.6986   4078205.9565   2   6   0.1795   0.1176   0.0826  -0.0827   0.0746   0.0149  -0.20    1.1    0.00000    0.00000    0.00000   0.00000  0.00000  0.00000  0.00000  0.00000  0.00000
2284 354137.900  -2169642.2121   4385196.6068   4078205.9427   2   6   0.1781   0.1163   0.0819  -0.0816   0.0739   0.0151  -0.10    1.1    0.00000    0.00000    0.00000   0.00000  0.00000  0.00000  0.00000  0.00000  0.00000
2284 354138.000  -2169642.3412   4385196.5772   4078205.9578   2   6   0.1773   0.1156   0.0812  -0.0816   0.0733   0.0147   0.00    1.1    0.00000    0.00000    0.00000   0.00000  0.00000  0.00000  0.00000  0.00000  0.00000
2284 354138.100  -2169642.5032   4385196.5152   4078205.9611   2   6   0.1762   0.1146   0.0806  -0.0810   0.0727   0.0146   0.10    1.1    0.00000    0.00000    0.00000   0.00000  0.00000  0.00000  0.00000  0.00000  0.00000
2284 354138.200  -2169642.6739   4385196.4381   4078205.9374   2   6   0.1748   0.1133   0.0799  -0.0800   0.0721   0.0148   0.20    1.1    0.00000    0.00000    0.00000   0.00000  0.00000  0.00000  0.00000  0.00000  0.00000
2284 354138.300  -2169642.8802   4385196.4065   4078205.9576   2   6   0.1737   0.1123   0.0793  -0.0793   0.0715   0.0147   0.30    1.2    0.00000    0.00000    0.00000   0.00000  0.00000  0.00000  0.00000  0.00000  0.00000
2284 354138.400  -2169642.9488   4385196.3256   4078205.9546   2   5   0.1728   0.1115   0.0787  -0.0791   0.0709   0.0146   0.40    1.2    0.00000    0.00000    0.00000   0.00000  0.00000  0.00000  0.00000  0.00000  0.00000
2284 354138.500  -2169643.0471   4385196.2450   4078205.9606   2   5   0.1718   0.1107   0.0781  -0.0787   0.0703   0.0146   0.50    1.2    0.00000    0.00000    0.00000   0.00000  0.00000  0.00000  0.00000  0.00000  0.00000
2284 354138.600  -2169643.1583   4385196.1533   4078205.9946   2   5   0.1709   0.1098   0.0776  -0.0782   0.0697   0.0148  -0.40    1.4    0.00000    0.00000    0.00000   0.00000  0.00000  0.00000  0.00000  0.00000  0.00000
2284 354138.700  -2169643.2676   4385196.0298   4078205.9952   2   5   0.1699   0.1090   0.0770  -0.0778   0.0692   0.0149  -0.30    1.3    0.00000    0.00000    0.00000   0.00000  0.00000  0.00000  0.00000  0.00000  0.00000
2284 354138.800  -2169643.5043   4385196.0299   4078205.9732   2   5   0.1693   0.1084   0.0773  -0.0778   0.0691   0.0096  -0.20    2.1    0.00000    0.00000    0.00000   0.00000  0.00000  0.00000  0.00000  0.00000  0.00000
2284 354138.900  -2169643.6319   4385195.9677   4078205.9822   2   5   0.1682   0.1075   0.0764  -0.0771   0.0683   0.0127  -0.10    2.0    0.00000    0.00000    0.00000   0.00000  0.00000  0.00000  0.00000  0.00000  0.00000
2284 354139.000  -2169643.6792   4385195.9203   4078205.9816   2   5   0.1673   0.1068   0.0760  -0.0768   0.0678   0.0125   0.00    2.0    0.00000    0.00000    0.00000   0.00000  0.00000  0.00000  0.00000  0.00000  0.00000
2284 354139.100  -2169643.7900   4385195.9071   4078205.9443   2   5   0.1667   0.1062   0.0758  -0.0768   0.0669   0.0150   0.10    1.0    0.00000    0.00000    0.00000   0.00000  0.00000  0.00000  0.00000  0.00000  0.00000
2284 354139.200  -2169643.8493   4385195.7950   4078205.9330   2   5   0.1659   0.1055   0.0754  -0.0765   0.0664   0.0153   0.20    1.0    0.00000    0.00000    0.00000   0.00000  0.00000  0.00000  0.00000  0.00000  0.00000
2284 354139.300  -2169643.9684   4385195.7230   4078205.9235   2   5   0.1648   0.1046   0.0747  -0.0758   0.0661   0.0135   0.30    1.3    0.00000    0.00000    0.00000   0.00000  0.00000  0.00000  0.00000  0.00000  0.00000
2284 354139.400  -2169644.0343   4385195.6375   4078205.8977   2   5   0.1640   0.1039   0.0743  -0.0754   0.0657   0.0136   0.40    1.1    0.00000    0.00000    0.00000   0.00000  0.00000  0.00000  0.00000  0.00000  0.00000
2284 354139.500  -2169644.0236   4385195.5241   4078205.8946   2   5   0.1631   0.1033   0.0739  -0.0751   0.0652   0.0137   0.50    1.3    0.00000    0.00000    0.00000   0.00000  0.00000  0.00000  0.00000  0.00000  0.00000
2284 354139.600  -2169644.1559   4385195.5219   4078205.9881   2   4   0.1626   0.1032   0.0905  -0.0751   0.0607   0.0142  -0.40    1.0    0.00000    0.00000    0.00000   0.00000  0.00000  0.00000  0.00000  0.00000  0.00000
2284 354139.700  -2169644.1777   4385195.4482   4078205.9782   2   4   0.1618   0.1026   0.0903  -0.0748   0.0601   0.0145  -0.30    1.0    0.00000    0.00000    0.00000   0.00000  0.00000  0.00000  0.00000  0.00000  0.00000
2284 354139.800  -2169644.2006   4385195.3861   4078205.9721   2   4   0.1611   0.1020   0.0900  -0.0745   0.0596   0.0147  -0.20    1.0    0.00000    0.00000    0.00000   0.00000  0.00000  0.00000  0.00000  0.00000  0.00000
2284 354139.900  -2169644.2657   4385195.3816   4078205.9967   2   4   0.1603   0.1014   0.0898  -0.0742   0.0590   0.0150  -0.10    1.0    0.00000    0.00000    0.00000   0.00000  0.00000  0.00000  0.00000  0.00000  0.00000
2284 354140.000  -2169644.3990   4385195.4327   4078206.0354   2   4   0.1596   0.1008   0.0896  -0.0739   0.0585   0.0152   0.00    1.0    0.00000    0.00000    0.00000   0.00000  0.00000  0.00000  0.00000  0.00000  0.00000
2284 354140.100  -2169644.4504   4385195.4233   4078205.9763   2   4   0.1589   0.1003   0.0894  -0.0736   0.0579   0.0155   0.10    1.0    0.00000    0.00000    0.00000   0.00000  0.00000  0.00000  0.00000  0.00000  0.00000
2284 354140.200  -2169644.4612   4385195.3929   4078205.9636   2   4   0.1582   0.0997   0.0892  -0.0733   0.0574   0.0157   0.20    1.0    0.00000    0.00000    0.00000   0.00000  0.00000  0.00000  0.00000  0.00000  0.00000
2284 354140.300  -2169644.4132   4385195.3198   4078206.0054   2   5   0.1572   0.0992   0.0890  -0.0731   0.0568   0.0154   0.30    1.0    0.00000    0.00000    0.00000   0.00000  0.00000  0.00000  0.00000  0.00000  0.00000
2284 354140.400  -2169644.4218   4385195.2826   4078205.9444   2   5   0.1556   0.0983   0.0886  -0.0720   0.0568   0.0118   0.40    1.1    0.00000    0.00000    0.00000   0.00000  0.00000  0.00000  0.00000  0.00000  0.00000
2284 354140.500  -2169644.5767   4385195.3088   4078205.9319   2   5   0.1544   0.0977   0.0884  -0.0715   0.0564   0.0101   0.50    1.1    0.00000    0.00000    0.00000   0.00000  0.00000  0.00000  0.00000  0.00000  0.00000
2284 354140.600  -2169644.6942   4385195.2566   4078205.9968   2   5   0.1534   0.0971   0.0881  -0.0711   0.0560   0.0091  -0.40    1.1    0.00000    0.00000    0.00000   0.00000  0.00000  0.00000  0.00000  0.00000  0.00000
2284 354140.700  -2169644.7153   4385195.1368   4078206.0751   2   5   0.1524   0.0965   0.0878  -0.0707   0.0556   0.0084  -0.30    1.1    0.00000    0.00000    0.00000   0.00000  0.00000  0.00000  0.00000  0.00000  0.00000
2284 354140.800  -2169644.7178   4385195.0558   4078206.0069   2   5   0.1515   0.0960   0.0876  -0.0704   0.0551   0.0077  -0.20    1.0    0.00000    0.00000    0.00000   0.00000  0.00000  0.00000  0.00000  0.00000  0.00000
2284 354140.900  -2169644.8163   4385195.0141   4078206.0040   2   5   0.1506   0.0955   0.0874  -0.0701   0.0547   0.0071  -0.10    1.0    0.00000    0.00000    0.00000   0.00000  0.00000  0.00000  0.00000  0.00000  0.00000
2284 354141.000  -2169644.9144   4385194.9709   4078205.9426   2   5   0.1497   0.0950   0.0872  -0.0699   0.0543   0.0066   0.00    1.0    0.00000    0.00000    0.00000   0.00000  0.00000  0.00000  0.00000  0.00000  0.00000
2284 354141.100  -2169645.0415   4385194.8963   4078205.9565   2   5   0.1488   0.0945   0.0870  -0.0696   0.0538   0.0061   0.10    1.0    0.00000    0.00000    0.00000   0.00000  0.00000  0.00000  0.00000  0.00000  0.00000
2284 354141.200  -2169645.1724   4385194.7959   4078205.9820   2   5   0.1480   0.0941   0.0869  -0.0693   0.0534   0.0055   0.20    1.0    0.00000    0.00000    0.00000   0.00000  0.00000  0.00000  0.00000  0.00000  0.00000
2284 354141.300  -2169645.3010   4385194.6992   4078206.0213   2   5   0.1472   0.0936   0.0867  -0.0691   0.0529   0.0049   0.30    1.0    0.00000    0.00000    0.00000   0.00000  0.00000  0.00000  0.00000  0.00000  0.00000
2284 354141.400  -2169645.3529   4385194.5902   4078206.0366   2   5   0.1464   0.0932   0.0866  -0.0689   0.0525   0.0043   0.40    1.1    0.00000    0.00000    0.00000   0.00000  0.00000  0.00000  0.00000  0.00000  0.00000
2284 354141.500  -2169645.3854   4385194.5710   4078206.0084   2   5   0.1456   0.0927   0.0865  -0.0686   0.0520   0.0036   0.50    1.1    0.00000    0.00000    0.00000   0.00000  0.00000  0.00000  0.00000  0.00000  0.00000
2284 354141.600  -2169645.3662   4385194.5205   4078205.9512   2   5   0.1448   0.0923   0.0863  -0.0684   0.0516   0.0032  -0.40    1.1    0.00000    0.00000    0.00000   0.00000  0.00000  0.00000  0.00000  0.00000  0.00000
2284 354141.700  -2169645.4066   4385194.4463   4078205.9672   2   5   0.1440   0.0918   0.0861  -0.0681   0.0512   0.0027  -0.30    1.1    0.00000    0.00000    0.00000   0.00000  0.00000  0.00000  0.00000  0.00000  0.00000
2284 354141.800  -2169645.4988   4385194.3901   4078205.9535   2   5   0.1433   0.0914   0.0859  -0.0679   0.0508   0.0021  -0.20    1.2    0.00000    0.00000    0.00000   0.00000  0.00000  0.00000  0.00000  0.00000  0.00000
2284 354141.900  -2169645.5638   4385194.3526   4078205.9633   2   5   0.1425   0.0910   0.0857  -0.0677   0.0504   0.0012  -0.10    1.2    0.00000    0.00000    0.00000   0.00000  0.00000  0.00000  0.00000  0.00000  0.00000
2284 354142.000  -2169645.5699   4385194.3045   4078205.9417   2   5   0.1418   0.0906   0.0856  -0.0675   0.0500  -0.0008   0.00    1.2    0.00000    0.00000    0.00000   0.00000  0.00000  0.00000  0.00000  0.00000  0.00000
2284 354142.100  -2169645.5269   4385194.2503   4078205.9188   2   5   0.1411   0.0902   0.0854  -0.0672   0.0496  -0.0016   0.10    1.2    0.00000    0.00000    0.00000   0.00000  0.00000  0.00000  0.00000  0.00000  0.00000
2284 354142.200  -2169645.5629   4385194.2047   4078205.9575   2   5   0.1404   0.0898   0.0853  -0.0670   0.0492  -0.0023   0.20    1.2    0.00000    0.00000    0.00000   0.00000  0.00000  0.00000  0.00000  0.00000  0.00000
2284 354142.300  -2169645.6081   4385194.1451   4078205.9258   2   5   0.1397   0.0894   0.0852  -0.0668   0.0488  -0.0028   0.30    1.3    0.00000    0.00000    0.00000   0.00000  0.00000  0.00000  0.00000  0.00000  0.00000
2284 354142.400  -2169645.6365   4385194.0426   4078205.9484   2   5   0.1390   0.0891   0.0851  -0.0666   0.0484  -0.0033   0.40    1.3    0.00000    0.00000    0.00000   0.00000  0.00000  0.00000  0.00000  0.00000  0.00000
2284 354142.500  -2169645.7440   4385193.9307   4078206.0768   2   5   0.1384   0.0887   0.0850  -0.0664   0.0480  -0.0038   0.50    1.3    0.00000    0.00000    0.00000   0.00000  0.00000  0.00000  0.00000  0.00000  0.00000
2284 354142.600  -2169645.8725   4385193.8411   4078206.0706   2   5   0.1377   0.0883   0.0848  -0.0662   0.0477  -0.0039  -0.40    1.3    0.00000    0.00000    0.00000   0.00000  0.00000  0.00000  0.00000  0.00000  0.00000
2284 354142.700  -2169645.9893   4385193.7553   4078206.0939   2   5   0.1370   0.0880   0.0847  -0.0660   0.0473  -0.0040  -0.30    1.3    0.00000    0.00000    0.00000   0.00000  0.00000  0.00000  0.00000  0.00000  0.00000
2284 354142.800  -2169646.0290   4385193.6248   4078206.1584   2   5   0.1364   0.0876   0.0845  -0.0658   0.0470  -0.0040  -0.20    1.3    0.00000    0.00000    0.00000   0.00000  0.00000  0.00000  0.00000  0.00000  0.00000
2284 354142.900  -2169646.1260   4385193.5054   4078206.2199   2   5   0.1358   0.0872   0.0844  -0.0656   0.0466  -0.0041  -0.10    1.3    0.00000    0.00000    0.00000   0.00000  0.00000  0.00000  0.00000  0.00000  0.00000
2284 354143.000  -2169646.2436   4385193.3828   4078206.2077   2   5   0.1351   0.0869   0.0842  -0.0654   0.0463  -0.0042   0.00    1.3    0.00000    0.00000    0.00000   0.00000  0.00000  0.00000  0.00000  0.00000  0.00000
2284 354143.100  -2169646.3885   4385193.2787   4078206.2386   2   5   0.1345   0.0866   0.0841  -0.0652   0.0459  -0.0044   0.10    1.3    0.00000    0.00000    0.00000   0.00000  0.00000  0.00000  0.00000  0.00000  0.00000
2284 354143.200  -2169646.5135   4385193.1317   4078206.3771   2   5   0.1339   0.0862   0.0840  -0.0650   0.0456  -0.0045   0.20    1.3    0.00000    0.00000    0.00000   0.00000  0.00000  0.00000  0.00000  0.00000  0.00000
2284 354143.300  -2169646.5968   4385192.9665   4078206.4336   2   5   0.1333   0.0859   0.0839  -0.0648   0.0452  -0.0047   0.30    1.3    0.00000    0.00000    0.00000   0.00000  0.00000  0.00000  0.00000  0.00000  0.00000
2284 354143.400  -2169646.7336   4385192.7965   4078206.5703   2   5   0.1328   0.0856   0.0839  -0.0646   0.0449  -0.0048   0.40    1.3    0.00000    0.00000    0.00000   0.00000  0.00000  0.00000  0.00000  0.00000  0.00000
2284 354143.500  -2169646.8099   4385192.6044   4078206.7022   2   5   0.1322   0.0853   0.0838  -0.0644   0.0445  -0.0050   0.50    1.4    0.00000    0.00000    0.00000   0.00000  0.00000  0.00000  0.00000  0.00000  0.00000
2284 354143.600  -2169646.8781   4385192.4469   4078206.7702   2   5   0.1316   0.0849   0.0836  -0.0642   0.0442  -0.0049  -0.40    1.4    0.00000    0.00000    0.00000   0.00000  0.00000  0.00000  0.00000  0.00000  0.00000
2284 354143.700  -2169646.9626   4385192.2786   4078206.8693   2   5   0.1310   0.0846   0.0835  -0.0641   0.0439  -0.0048  -0.30    1.4    0.00000    0.00000    0.00000   0.00000  0.00000  0.00000  0.00000  0.00000  0.00000
2284 354143.800  -2169647.0138   4385192.1119   4078207.0120   2   5   0.1305   0.0843   0.0833  -0.0639   0.0436  -0.0048  -0.20    1.4    0.00000    0.00000    0.00000   0.00000  0.00000  0.00000  0.00000  0.00000  0.00000
2284 354143.900  -2169647.0725   4385191.9640   4078207.1749   2   5   0.1299   0.0840   0.0832  -0.0637   0.0432  -0.0048  -0.10    1.4    0.00000    0.00000    0.00000   0.00000  0.00000  0.00000  0.00000  0.00000  0.00000
2284 354144.000  -2169647.0814   4385191.8611   4078207.1785   2   5   0.1294   0.0837   0.0831  -0.0635   0.0429  -0.0048   0.00    1.4    0.00000    0.00000    0.00000   0.00000  0.00000  0.00000  0.00000  0.00000  0.00000
2284 354144.100  -2169647.0938   4385191.7978   4078207.2119   2   5   0.1289   0.0834   0.0830  -0.0633   0.0426  -0.0049   0.10    1.4    0.00000    0.00000    0.00000   0.00000  0.00000  0.00000  0.00000  0.00000  0.00000
2284 354144.200  -2169647.1131   4385191.7281   4078207.2715   2   5   0.1283   0.0831   0.0829  -0.0632   0.0423  -0.0049   0.20    1.4    0.00000    0.00000    0.00000   0.00000  0.00000  0.00000  0.00000  0.00000  0.00000
2284 354144.300  -2169647.1482   4385191.6561   4078207.2705   2   5   0.1278   0.0828   0.0829  -0.0630   0.0420  -0.0050   0.30    1.4    0.00000    0.00000    0.00000   0.00000  0.00000  0.00000  0.00000  0.00000  0.00000
2284 354144.400  -2169647.2040   4385191.5671   4078207.3698   2   5   0.1273   0.0825   0.0828  -0.0628   0.0416  -0.0051   0.40    1.4    0.00000    0.00000    0.00000   0.00000  0.00000  0.00000  0.00000  0.00000  0.00000
2284 354144.500  -2169647.3063   4385191.5296   4078207.4228   2   5   0.1268   0.0823   0.0828  -0.0627   0.0413  -0.0051   0.50    1.4    0.00000    0.00000    0.00000   0.00000  0.00000  0.00000  0.00000  0.00000  0.00000
2284 354144.600  -2169647.3771   4385191.4596   4078207.4018   2   5   0.1263   0.0820   0.0826  -0.0625   0.0410  -0.0051  -0.40    1.4    0.00000    0.00000    0.00000   0.00000  0.00000  0.00000  0.00000  0.00000  0.00000
2284 354144.700  -2169647.4926   4385191.4161   4078207.3141   2   5   0.1258   0.0817   0.0825  -0.0623   0.0407  -0.0050  -0.30    1.4    0.00000    0.00000    0.00000   0.00000  0.00000  0.00000  0.00000  0.00000  0.00000
2284 354144.800  -2169647.6204   4385191.3351   4078207.3693   2   5   0.1253   0.0814   0.0824  -0.0622   0.0405  -0.0049  -0.20    1.4    0.00000    0.00000    0.00000   0.00000  0.00000  0.00000  0.00000  0.00000  0.00000
2284 354144.900  -2169647.7194   4385191.2592   4078207.3742   2   5   0.1249   0.0812   0.0823  -0.0620   0.0402  -0.0048  -0.10    1.4    0.00000    0.00000    0.00000   0.00000  0.00000  0.00000  0.00000  0.00000  0.00000
2284 354145.000  -2169647.8065   4385191.2370   4078207.3567   2   5   0.1244   0.0809   0.0822  -0.0618   0.0399  -0.0047   0.00    1.4    0.00000    0.00000    0.00000   0.00000  0.00000  0.00000  0.00000  0.00000  0.00000
2284 354145.100  -2169647.8364   4385191.2182   4078207.3478   2   5   0.1239   0.0806   0.0821  -0.0617   0.0396  -0.0047   0.10    1.4    0.00000    0.00000    0.00000   0.00000  0.00000  0.00000  0.00000  0.00000  0.00000
2284 354145.200  -2169647.8368   4385191.1716   4078207.3366   2   5   0.1235   0.0804   0.0820  -0.0615   0.0393  -0.0047   0.20    1.4    0.00000    0.00000    0.00000   0.00000  0.00000  0.00000  0.00000  0.00000  0.00000
2284 354145.300  -2169647.8320   4385191.1467   4078207.3377   2   5   0.1230   0.0801   0.0820  -0.0614   0.0390  -0.0048   0.30    1.4    0.00000    0.00000    0.00000   0.00000  0.00000  0.00000  0.00000  0.00000  0.00000
2284 354145.400  -2169647.8201   4385191.1391   4078207.3260   2   5   0.1226   0.0799   0.0819  -0.0612   0.0387  -0.0048   0.40    1.4    0.00000    0.00000    0.00000   0.00000  0.00000  0.00000  0.00000  0.00000  0.00000
2284 354145.500  -2169647.8208   4385191.1422   4078207.3199   2   5   0.1221   0.0797   0.0819  -0.0611   0.0384  -0.0049   0.50    1.4    0.00000    0.00000    0.00000   0.00000  0.00000  0.00000  0.00000  0.00000  0.00000
2284 354145.600  -2169647.8082   4385191.0842   4078207.3450   2   5   0.1217   0.0794   0.0818  -0.0609   0.0382  -0.0047  -0.40    1.5    0.00000    0.00000    0.00000   0.00000  0.00000  0.00000  0.00000  0.00000  0.00000
2284 354145.700  -2169647.8680   4385191.0272   4078207.3429   2   5   0.1213   0.0791   0.0816  -0.0608   0.0379  -0.0045  -0.30    1.5    0.00000    0.00000    0.00000   0.00000  0.00000  0.00000  0.00000  0.00000  0.00000
2284 354145.800  -2169648.0003   4385190.9772   4078207.4326   2   5   0.1208   0.0789   0.0815  -0.0606   0.0377  -0.0045  -0.20    1.5    0.00000    0.00000    0.00000   0.00000  0.00000  0.00000  0.00000  0.00000  0.00000
2284 354145.900  -2169648.0568   4385190.8768   4078207.4447   2   5   0.1204   0.0787   0.0814  -0.0605   0.0374  -0.0044  -0.10    1.5    0.00000    0.00000    0.00000   0.00000  0.00000  0.00000  0.00000  0.00000  0.00000
2284 354146.000  -2169648.1205   4385190.7993   4078207.5071   2   5   0.1200   0.0784   0.0814  -0.0603   0.0371  -0.0042   0.00    1.5    0.00000    0.00000    0.00000   0.00000  0.00000  0.00000  0.00000  0.00000  0.00000
2284 354146.100  -2169648.1212   4385190.7131   4078207.4948   2   5   0.1196   0.0782   0.0813  -0.0602   0.0369  -0.0042   0.10    1.5    0.00000    0.00000    0.00000   0.00000  0.00000  0.00000  0.00000  0.00000  0.00000
2284 354146.200  -2169648.1588   4385190.6756   4078207.5208   2   5   0.1191   0.0780   0.0812  -0.0600   0.0366  -0.0042   0.20    1.5    0.00000    0.00000    0.00000   0.00000  0.00000  0.00000  0.00000  0.00000  0.00000
2284 354146.300  -2169648.2167   4385190.6607   4078207.5674   2   6   0.1183   0.0777   0.0811  -0.0599   0.0363   0.0040   0.30    1.5    0.00000    0.00000    0.00000   0.00000  0.00000  0.00000  0.00000  0.00000  0.00000
2284 354146.400  -2169648.2691   4385190.6103   4078207.5979   2   6   0.1172   0.0775   0.0730  -0.0597   0.0362   0.0193   0.40    1.4    0.00000    0.00000    0.00000   0.00000  0.00000  0.00000  0.00000  0.00000  0.00000
2284 354146.500  -2169648.3327   4385190.5872   4078207.6034   2   6   0.1163   0.0773   0.0700  -0.0596   0.0359   0.0222   0.50    1.4    0.00000    0.00000    0.00000   0.00000  0.00000  0.00000  0.00000  0.00000  0.00000
2284 354146.600  -2169648.3971   4385190.5191   4078207.5649   2   6   0.1155   0.0771   0.0684  -0.0594   0.0357   0.0237  -0.40    1.4    0.00000    0.00000    0.00000   0.00000  0.00000  0.00000  0.00000  0.00000  0.00000
2284 354146.700  -2169648.5047   4385190.4083   4078207.5543   2   7   0.1142   0.0768   0.0674  -0.0589   0.0355   0.0245  -0.30    1.4    0.00000    0.00000    0.00000   0.00000  0.00000  0.00000  0.00000  0.00000  0.00000
2284 354146.800  -2169648.6370   4385190.3229   4078207.6316   2   7   0.1123   0.0755   0.0663  -0.0571   0.0363   0.0235  -0.20    1.2    0.00000    0.00000    0.00000   0.00000  0.00000  0.00000  0.00000  0.00000  0.00000
2284 354146.900  -2169648.7777   4385190.2542   4078207.6645   2   7   0.1108   0.0748   0.0649  -0.0560   0.0368   0.0226  -0.10    1.1    0.00000    0.00000    0.00000   0.00000  0.00000  0.00000  0.00000  0.00000  0.00000
2284 354147.000  -2169648.9260   4385190.1736   4078207.6513   2   7   0.1095   0.0743   0.0641  -0.0553   0.0369   0.0224   0.00    1.0    0.00000    0.00000    0.00000   0.00000  0.00000  0.00000  0.00000  0.00000  0.00000
2284 354147.100  -2169649.0801   4385190.0712   4078207.6666   2   7   0.1084   0.0739   0.0635  -0.0547   0.0369   0.0224   0.10    1.0    0.00000    0.00000    0.00000   0.00000  0.00000  0.00000  0.00000  0.00000  0.00000
2284 354147.200  -2169649.2544   4385189.9685   4078207.6677   2   7   0.1073   0.0735   0.0631  -0.0542   0.0369   0.0223   0.20    1.0    0.00000    0.00000    0.00000   0.00000  0.00000  0.00000  0.00000  0.00000  0.00000
2284 354147.300  -2169649.4764   4385189.8691   4078207.6529   2   7   0.1064   0.0733   0.0640  -0.0539   0.0361   0.0237   0.30    1.0    0.00000    0.00000    0.00000   0.00000  0.00000  0.00000  0.00000  0.00000  0.00000
2284 354147.400  -2169649.7130   4385189.7495   4078207.6742   2   7   0.1054   0.0730   0.0638  -0.0534   0.0359   0.0239   0.40    1.0    0.00000    0.00000    0.00000   0.00000  0.00000  0.00000  0.00000  0.00000  0.00000
2284 354147.500  -2169649.9567   4385189.6283   4078207.6777   2   7   0.1043   0.0726   0.0622  -0.0529   0.0364   0.0228   0.50    1.0    0.00000    0.00000    0.00000   0.00000  0.00000  0.00000  0.00000  0.00000  0.00000
2284 354147.600  -2169650.1856   4385189.5167   4078207.6791   2   7   0.1034   0.0723   0.0619  -0.0524   0.0363   0.0228  -0.40    1.1    0.00000    0.00000    0.00000   0.00000  0.00000  0.00000  0.00000  0.00000  0.00000
2284 354147.700  -2169650.3757   4385189.4432   4078207.6440   2   7   0.1024   0.0720   0.0616  -0.0520   0.0362   0.0228  -0.30    1.1    0.00000    0.00000    0.00000   0.00000  0.00000  0.00000  0.00000  0.00000  0.00000
2284 354147.800  -2169650.5566   4385189.3833   4078207.6077   2   7   0.1016   0.0717   0.0613  -0.0516   0.0361   0.0228  -0.20    1.0    0.00000    0.00000    0.00000   0.00000  0.00000  0.00000  0.00000  0.00000  0.00000
2284 354147.900  -2169650.7767   4385189.3175   4078207.6172   2   7   0.1007   0.0714   0.0611  -0.0513   0.0360   0.0228  -0.10    1.1    0.00000    0.00000    0.00000   0.00000  0.00000  0.00000  0.00000  0.00000  0.00000
2284 354148.000  -2169651.0169   4385189.2274   4078207.6223   2   7   0.0999   0.0711   0.0608  -0.0509   0.0358   0.0228   0.00    1.1    0.00000    0.00000    0.00000   0.00000  0.00000  0.00000  0.00000  0.00000  0.00000
2284 354148.100  -2169651.2731   4385189.1397   4078207.5910   2   7   0.0992   0.0710   0.0621  -0.0507   0.0350   0.0242   0.10    1.0    0.00000    0.00000    0.00000   0.00000  0.00000  0.00000  0.00000  0.00000  0.00000
2284 354148.200  -2169651.4434   4385189.0151   4078207.6702   2   7   0.0983   0.0706   0.0605  -0.0502   0.0355   0.0230   0.20    1.3    0.00000    0.00000    0.00000   0.00000  0.00000  0.00000  0.00000  0.00000  0.00000
2284 354148.300  -2169651.7034   4385188.9530   4078207.5987   2   7   0.0976   0.0705   0.0618  -0.0501   0.0347   0.0244   0.30    1.1    0.00000    0.00000    0.00000   0.00000  0.00000  0.00000  0.00000  0.00000  0.00000
2284 354148.400  -2169651.8868   4385188.8213   4078207.6851   2   7   0.0968   0.0701   0.0601  -0.0496   0.0352   0.0231   0.40    1.4    0.00000    0.00000    0.00000   0.00000  0.00000  0.00000  0.00000  0.00000  0.00000
2284 354148.500  -2169652.1413   4385188.7186   4078207.6675   2   7   0.0960   0.0699   0.0600  -0.0492   0.0351   0.0231   0.50    1.5    0.00000    0.00000    0.00000   0.00000  0.00000  0.00000  0.00000  0.00000  0.00000
2284 354148.600  -2169652.3713   4385188.6322   4078207.5932   2   7   0.0954   0.0697   0.0613  -0.0491   0.0342   0.0245  -0.40    1.2    0.00000    0.00000    0.00000   0.00000  0.00000  0.00000  0.00000  0.00000  0.00000
2284 354148.700  -2169652.6092   4385188.5295   4078207.6034   2   7   0.0947   0.0695   0.0612  -0.0489   0.0340   0.0246  -0.30    1.2    0.00000    0.00000    0.00000   0.00000  0.00000  0.00000  0.00000  0.00000  0.00000
2284 354148.800  -2169652.8361   4385188.4356   4078207.6019   2   7   0.0941   0.0693   0.0611  -0.0486   0.0338   0.0247  -0.20    1.2    0.00000    0.00000    0.00000   0.00000  0.00000  0.00000  0.00000  0.00000  0.00000
2284 354148.900  -2169653.0662   4385188.3471   4078207.6204   2   7   0.0934   0.0690   0.0610  -0.0483   0.0337   0.0248  -0.10    1.2    0.00000    0.00000    0.00000   0.00000  0.00000  0.00000  0.00000  0.00000  0.00000
2284 354149.000  -2169653.2855   4385188.2725   4078207.5950   2   7   0.0928   0.0688   0.0609  -0.0481   0.0335   0.0249   0.00    1.1    0.00000    0.00000    0.00000   0.00000  0.00000  0.00000  0.00000  0.00000  0.00000
2284 354149.100  -2169653.4634   4385188.1605   4078207.5581   2   6   0.0942   0.0707   0.0612  -0.0511   0.0313   0.0276   0.10    1.1    0.00000    0.00000    0.00000   0.00000  0.00000  0.00000  0.00000  0.00000  0.00000
2284 354149.200  -2169653.5856   4385188.0336   4078207.6089   2   6   0.0939   0.0705   0.0611  -0.0511   0.0311   0.0277   0.20    1.1    0.00000    0.00000    0.00000   0.00000  0.00000  0.00000  0.00000  0.00000  0.00000
2284 354149.300  -2169653.7469   4385187.9636   4078207.5718   2   6   0.0935   0.0704   0.0610  -0.0510   0.0309   0.0278   0.30    1.1    0.00000    0.00000    0.00000   0.00000  0.00000  0.00000  0.00000  0.00000  0.00000
2284 354149.400  -2169653.9387   4385187.8604   4078207.6483   2   6   0.0932   0.0702   0.0609  -0.0510   0.0307   0.0279   0.40    1.1    0.00000    0.00000    0.00000   0.00000  0.00000  0.00000  0.00000  0.00000  0.00000
2284 354149.500  -2169654.1502   4385187.7233   4078207.6527   2   6   0.0929   0.0701   0.0609  -0.0509   0.0305   0.0280   0.50    1.1    0.00000    0.00000    0.00000   0.00000  0.00000  0.00000  0.00000  0.00000  0.00000
2284 354149.600  -2169654.4163   4385187.5980   4078207.6413   2   6   0.0925   0.0699   0.0608  -0.0508   0.0303   0.0281  -0.40    1.1    0.00000    0.00000    0.00000   0.00000  0.00000  0.00000  0.00000  0.00000  0.00000
2284 354149.700  -2169654.6698   4385187.4595   4078207.6050   2   6   0.0922   0.0697   0.0607  -0.0508   0.0301   0.0282  -0.30    1.1    0.00000    0.00000    0.00000   0.00000  0.00000  0.00000  0.00000  0.00000  0.00000
2284 354149.800  -2169654.8824   4385187.2953   4078207.6370   2   6   0.0918   0.0696   0.0606  -0.0507   0.0299   0.0282  -0.20    1.1    0.00000    0.00000    0.00000   0.00000  0.00000  0.00000  0.00000  0.00000  0.00000
2284 354149.900  -2169655.1187   4385187.1699   4078207.6587   2   6   0.0915   0.0694   0.0605  -0.0506   0.0297   0.0283  -0.10    1.1    0.00000    0.00000    0.00000   0.00000  0.00000  0.00000  0.00000  0.00000  0.00000
2284 354150.000  -2169655.3715   4385187.0824   4078207.6459   2   6   0.0912   0.0693   0.0604  -0.0506   0.0295   0.0284   0.00    1.1    0.00000    0.00000    0.00000   0.00000  0.00000  0.00000  0.00000  0.00000  0.00000
2284 354150.100  -2169655.5549   4385186.9323   4078207.6748   2   6   0.0909   0.0691   0.0603  -0.0505   0.0293   0.0285   0.10    1.1    0.00000    0.00000    0.00000   0.00000  0.00000  0.00000  0.00000  0.00000  0.00000
2284 354150.200  -2169655.7624   4385186.8281   4078207.6673   2   6   0.0906   0.0690   0.0602  -0.0505   0.0291   0.0286   0.20    1.1    0.00000    0.00000    0.00000   0.00000  0.00000  0.00000  0.00000  0.00000  0.00000
2284 354150.300  -2169655.9655   4385186.7342   4078207.6174   2   6   0.0903   0.0688   0.0602  -0.0504   0.0289   0.0287   0.30    1.2    0.00000    0.00000    0.00000   0.00000  0.00000  0.00000  0.00000  0.00000  0.00000
2284 354150.400  -2169656.1369   4385186.6048   4078207.6301   2   6   0.0900   0.0687   0.0601  -0.0504   0.0287   0.0287   0.40    1.2    0.00000    0.00000    0.00000   0.00000  0.00000  0.00000  0.00000  0.00000  0.00000
2284 354150.500  -2169656.3181   4385186.5098   4078207.6384   2   6   0.0897   0.0686   0.0600  -0.0503   0.0285   0.0288   0.50    1.2    0.00000    0.00000    0.00000   0.00000  0.00000  0.00000  0.00000  0.00000  0.00000
2284 354150.600  -2169656.4923   4385186.4414   4078207.6697   2   6   0.0894   0.0684   0.0599  -0.0503   0.0284   0.0289  -0.40    1.2    0.00000    0.00000    0.00000   0.00000  0.00000  0.00000  0.00000  0.00000  0.00000
2284 354150.700  -2169656.6695   4385186.3527   4078207.6621   2   6   0.0891   0.0683   0.0598  -0.0502   0.0282   0.0290  -0.30    1.2    0.00000    0.00000    0.00000   0.00000  0.00000  0.00000  0.00000  0.00000  0.00000
2284 354150.800  -2169656.8194   4385186.2378   4078207.6622   2   6   0.0888   0.0681   0.0598  -0.0501   0.0280   0.0290  -0.20    1.2    0.00000    0.00000    0.00000   0.00000  0.00000  0.00000  0.00000  0.00000  0.00000
2284 354150.900  -2169656.9980   4385186.1686   4078207.6306   2   6   0.0885   0.0680   0.0597  -0.0501   0.0278   0.0291  -0.10    1.2    0.00000    0.00000    0.00000   0.00000  0.00000  0.00000  0.00000  0.00000  0.00000
2284 354151.000  -2169657.1557   4385186.0947   4078207.6159   2   6   0.0882   0.0678   0.0596  -0.0500   0.0276   0.0291   0.00    1.2    0.00000    0.00000    0.00000   0.00000  0.00000  0.00000  0.00000  0.00000  0.00000
2284 354151.100  -2169657.2678   4385186.0008   4078207.6380   2   6   0.0880   0.0677   0.0595  -0.0500   0.0274   0.0292   0.10    1.3    0.00000    0.00000    0.00000   0.00000  0.00000  0.00000  0.00000  0.00000  0.00000
2284 354151.200  -2169657.3744   4385185.9341   4078207.6460   2   6   0.0877   0.0676   0.0595  -0.0499   0.0273   0.0293   0.20    1.3    0.00000    0.00000    0.00000   0.00000  0.00000  0.00000  0.00000  0.00000  0.00000
2284 354151.300  -2169657.4966   4385185.8911   4078207.6262   2   6   0.0874   0.0674   0.0594  -0.0499   0.0271   0.0294   0.30    1.3    0.00000    0.00000    0.00000   0.00000  0.00000  0.00000  0.00000  0.00000  0.00000
2284 354151.400  -2169657.5986   4385185.8185   4078207.6571   2   6   0.0872   0.0673   0.0593  -0.0498   0.0269   0.0294   0.40    1.3    0.00000    0.00000    0.00000   0.00000  0.00000  0.00000  0.00000  0.00000  0.00000
2284 354151.500  -2169657.7263   4385185.7529   4078207.6433   2   6   0.0869   0.0672   0.0593  -0.0498   0.0267   0.0295   0.50    1.3    0.00000    0.00000    0.00000   0.00000  0.00000  0.00000  0.00000  0.00000  0.00000
2284 354151.600  -2169657.8866   4385185.7002   4078207.6263   2   6   0.0866   0.0671   0.0592  -0.0497   0.0265   0.0295  -0.40    1.3    0.00000    0.00000    0.00000   0.00000  0.00000  0.00000  0.00000  0.00000  0.00000
2284 354151.700  -2169658.0077   4385185.6221   4078207.6530   2   6   0.0864   0.0669   0.0591  -0.0496   0.0264   0.0296  -0.30    1.3    0.00000    0.00000    0.00000   0.00000  0.00000  0.00000  0.00000  0.00000  0.00000
2284 354151.800  -2169658.0908   4385185.5225   4078207.6536   2   6   0.0861   0.0668   0.0590  -0.0496   0.0262   0.0296  -0.20    1.3    0.00000    0.00000    0.00000   0.00000  0.00000  0.00000  0.00000  0.00000  0.00000
2284 354151.900  -2169658.2474   4385185.4994   4078207.6074   2   6   0.0859   0.0667   0.0590  -0.0495   0.0260   0.0297  -0.10    1.3    0.00000    0.00000    0.00000   0.00000  0.00000  0.00000  0.00000  0.00000  0.00000
2284 354152.000  -2169658.3157   4385185.3988   4078207.6365   2   6   0.0856   0.0665   0.0589  -0.0495   0.0258   0.0298   0.00    1.3    0.00000    0.00000    0.00000   0.00000  0.00000  0.00000  0.00000  0.00000  0.00000
2284 354152.100  -2169658.4473   4385185.3191   4078207.6376   2   6   0.0854   0.0664   0.0588  -0.0494   0.0256   0.0298   0.10    1.4    0.00000    0.00000    0.00000   0.00000  0.00000  0.00000  0.00000  0.00000  0.00000
2284 354152.200  -2169658.5903   4385185.2622   4078207.6441   2   6   0.0851   0.0663   0.0588  -0.0494   0.0255   0.0299   0.20    1.4    0.00000    0.00000    0.00000   0.00000  0.00000  0.00000  0.00000  0.00000  0.00000
2284 354152.300  -2169658.7271   4385185.1959   4078207.6025   2   6   0.0849   0.0662   0.0587  -0.0493   0.0253   0.0299   0.30    1.4    0.00000    0.00000    0.00000   0.00000  0.00000  0.00000  0.00000  0.00000  0.00000
2284 354152.400  -2169658.8329   4385185.1095   4078207.6285   2   6   0.0847   0.0661   0.0587  -0.0493   0.0251   0.0300   0.40    1.4    0.00000    0.00000    0.00000   0.00000  0.00000  0.00000  0.00000  0.00000  0.00000
2284 354152.500  -2169658.9552   4385185.0276   4078207.6230   2   6   0.0845   0.0659   0.0586  -0.0493   0.0249   0.0301   0.50    1.4    0.00000    0.00000    0.00000   0.00000  0.00000  0.00000  0.00000  0.00000  0.00000
2284 354152.600  -2169659.1195   4385184.9795   4078207.6091   2   6   0.0842   0.0658   0.0585  -0.0492   0.0247   0.0301  -0.40    1.4    0.00000    0.00000    0.00000   0.00000  0.00000  0.00000  0.00000  0.00000  0.00000
2284 354152.700  -2169659.2605   4385184.8987   4078207.6070   2   6   0.0840   0.0657   0.0585  -0.0491   0.0246   0.0302  -0.30    1.4    0.00000    0.00000    0.00000   0.00000  0.00000  0.00000  0.00000  0.00000  0.00000
2284 354152.800  -2169659.3716   4385184.8066   4078207.6225   2   6   0.0837   0.0656   0.0584  -0.0491   0.0244   0.0302  -0.20    1.4    0.00000    0.00000    0.00000   0.00000  0.00000  0.00000  0.00000  0.00000  0.00000
2284 354152.900  -2169659.5055   4385184.7372   4078207.6221   2   6   0.0835   0.0654   0.0583  -0.0490   0.0242   0.0302  -0.10    1.4    0.00000    0.00000    0.00000   0.00000  0.00000  0.00000  0.00000  0.00000  0.00000
2284 354153.000  -2169659.6444   4385184.6599   4078207.6244   2   6   0.0833   0.0653   0.0583  -0.0490   0.0241   0.0303   0.00    1.4    0.00000    0.00000    0.00000   0.00000  0.00000  0.00000  0.00000  0.00000  0.00000
2284 354153.100  -2169659.7796   4385184.5979   4078207.6227   2   6   0.0831   0.0652   0.0582  -0.0489   0.0239   0.0304   0.10    1.5    0.00000    0.00000    0.00000   0.00000  0.00000  0.00000  0.00000  0.00000  0.00000
2284 354153.200  -2169659.8879   4385184.5296   4078207.6298   2   6   0.0829   0.0651   0.0581  -0.0489   0.0237   0.0304   0.20    1.4    0.00000    0.00000    0.00000   0.00000  0.00000  0.00000  0.00000  0.00000  0.00000
2284 354153.300  -2169660.0123   4385184.4809   4078207.6245   2   6   0.0827   0.0650   0.0581  -0.0488   0.0235   0.0304   0.30    1.5    0.00000    0.00000    0.00000   0.00000  0.00000  0.00000  0.00000  0.00000  0.00000
2284 354153.400  -2169660.1060   4385184.4214   4078207.6055   2   6   0.0825   0.0649   0.0580  -0.0488   0.0234   0.0305   0.40    1.5    0.00000    0.00000    0.00000   0.00000  0.00000  0.00000  0.00000  0.00000  0.00000
2284 354153.500  -2169660.1874   4385184.3605   4078207.6126   2   6   0.0823   0.0648   0.0580  -0.0488   0.0232   0.0306   0.50    1.5    0.00000    0.00000    0.00000   0.00000  0.00000  0.00000  0.00000  0.00000  0.00000
2284 354153.600  -2169660.2995   4385184.3221   4078207.6232   2   6   0.0820   0.0647   0.0579  -0.0487   0.0230   0.0306  -0.40    1.5    0.00000    0.00000    0.00000   0.00000  0.00000  0.00000  0.00000  0.00000  0.00000
2284 354153.700  -2169660.4198   4385184.2347   4078207.6299   2   6   0.0818   0.0645   0.0579  -0.0486   0.0229   0.0306  -0.30    1.5    0.00000    0.00000    0.00000   0.00000  0.00000  0.00000  0.00000  0.00000  0.00000
2284 354153.800  -2169660.5409   4385184.1528   4078207.6307   2   6   0.0816   0.0644   0.0578  -0.0486   0.0227   0.0307  -0.20    1.5    0.00000    0.00000    0.00000   0.00000  0.00000  0.00000  0.00000  0.00000  0.00000
2284 354153.900  -2169660.6860   4385184.0876   4078207.6127   2   6   0.0814   0.0643   0.0577  -0.0485   0.0226   0.0307  -0.10    1.5    0.00000    0.00000    0.00000   0.00000  0.00000  0.00000  0.00000  0.00000  0.00000
2284 354154.000  -2169660.8069   4385184.0196   4078207.6410   2   6   0.0812   0.0642   0.0577  -0.0485   0.0224   0.0308   0.00    1.5    0.00000    0.00000    0.00000   0.00000  0.00000  0.00000  0.00000  0.00000  0.00000
2284 354154.100  -2169660.9161   4385183.9452   4078207.6476   2   6   0.0810   0.0641   0.0576  -0.0484   0.0222   0.0308   0.10    1.5    0.00000    0.00000    0.00000   0.00000  0.00000  0.00000  0.00000  0.00000  0.00000
2284 354154.200  -2169661.0130   4385183.8756   4078207.6456   2   6   0.0808   0.0640   0.0576  -0.0484   0.0220   0.0308   0.20    1.6    0.00000    0.00000    0.00000   0.00000  0.00000  0.00000  0.00000  0.00000  0.00000
2284 354154.300  -2169661.0892   4385183.8236   4078207.6404   2   6   0.0806   0.0639   0.0575  -0.0483   0.0219   0.0309   0.30    1.6    0.00000    0.00000    0.00000   0.00000  0.00000  0.00000  0.00000  0.00000  0.00000
2284 354154.400  -2169661.1777   4385183.7882   4078207.6313   2   6   0.0805   0.0638   0.0575  -0.0483   0.0217   0.0309   0.40    1.6    0.00000    0.00000    0.00000   0.00000  0.00000  0.00000  0.00000  0.00000  0.00000
2284 354154.500  -2169661.2527   4385183.7411   4078207.6463   2   6   0.0803   0.0637   0.0574  -0.0483   0.0215   0.0310   0.50    1.6    0.00000    0.00000    0.00000   0.00000  0.00000  0.00000  0.00000  0.00000  0.00000
2284 354154.600  -2169661.3325   4385183.6785   4078207.6413   2   6   0.0801   0.0636   0.0574  -0.0482   0.0214   0.0310  -0.40    1.6    0.00000    0.00000    0.00000   0.00000  0.00000  0.00000  0.00000  0.00000  0.00000
2284 354154.700  -2169661.4176   4385183.6174   4078207.6650   2   6   0.0799   0.0635   0.0573  -0.0482   0.0212   0.0311  -0.30    1.6    0.00000    0.00000    0.00000   0.00000  0.00000  0.00000  0.00000  0.00000  0.00000
2284 354154.800  -2169661.5092   4385183.5631   4078207.6756   2   6   0.0797   0.0634   0.0572  -0.0481   0.0210   0.0311  -0.20    1.6    0.00000    0.00000    0.00000   0.00000  0.00000  0.00000  0.00000  0.00000  0.00000
2284 354154.900  -2169661.6091   4385183.5271   4078207.6679   2   6   0.0795   0.0632   0.0572  -0.0481   0.0209   0.0311  -0.10    1.6    0.00000    0.00000    0.00000   0.00000  0.00000  0.00000  0.00000  0.00000  0.00000
2284 354155.000  -2169661.7202   4385183.4792   4078207.6609   2   6   0.0793   0.0631   0.0571  -0.0480   0.0207   0.0312   0.00    1.6    0.00000    0.00000    0.00000   0.00000  0.00000  0.00000  0.00000  0.00000  0.00000
2284 354155.100  -2169661.7736   4385183.3799   4078207.7010   2   6   0.0792   0.0630   0.0571  -0.0480   0.0206   0.0312   0.10    1.6    0.00000    0.00000    0.00000   0.00000  0.00000  0.00000  0.00000  0.00000  0.00000
2284 354155.200  -2169661.8950   4385183.3333   4078207.6839   2   6   0.0790   0.0629   0.0570  -0.0479   0.0204   0.0312   0.20    1.6    0.00000    0.00000    0.00000   0.00000  0.00000  0.00000  0.00000  0.00000  0.00000
2284 354155.300  -2169662.0149   4385183.2782   4078207.6594   2   6   0.0788   0.0629   0.0570  -0.0479   0.0202   0.0313   0.30    1.7    0.00000    0.00000    0.00000   0.00000  0.00000  0.00000  0.00000  0.00000  0.00000
2284 354155.400  -2169662.0949   4385183.2193   4078207.7010   2   6   0.0787   0.0628   0.0570  -0.0479   0.0200   0.0313   0.40    1.7    0.00000    0.00000    0.00000   0.00000  0.00000  0.00000  0.00000  0.00000  0.00000
2284 354155.500  -2169662.1914   4385183.1493   4078207.7015   2   6   0.0785   0.0627   0.0569  -0.0478   0.0198   0.0314   0.50    1.7    0.00000    0.00000    0.00000   0.00000  0.00000  0.00000  0.00000  0.00000  0.00000
2284 354155.600  -2169662.2786   4385183.0797   4078207.7141   2   6   0.0783   0.0626   0.0569  -0.0478   0.0197   0.0314  -0.40    1.7    0.00000    0.00000    0.00000   0.00000  0.00000  0.00000  0.00000  0.00000  0.00000
2284 354155.700  -2169662.4154   4385183.0393   4078207.7232   2   6   0.0781   0.0625   0.0568  -0.0477   0.0196   0.0314  -0.30    1.7    0.00000    0.00000    0.00000   0.00000  0.00000  0.00000  0.00000  0.00000  0.00000
2284 354155.800  -2169662.5460   4385182.9645   4078207.7290   2   6   0.0780   0.0624   0.0567  -0.0477   0.0194   0.0314  -0.20    1.7    0.00000    0.00000    0.00000   0.00000  0.00000  0.00000  0.00000  0.00000  0.00000
2284 354155.900  -2169662.6678   4385182.9214   4078207.7387   2   6   0.0778   0.0623   0.0567  -0.0476   0.0193   0.0315  -0.10    1.7    0.00000    0.00000    0.00000   0.00000  0.00000  0.00000  0.00000  0.00000  0.00000
2284 354156.000  -2169662.7469   4385182.8677   4078207.7519   2   6   0.0776   0.0622   0.0566  -0.0476   0.0191   0.0315   0.00    1.7    0.00000    0.00000    0.00000   0.00000  0.00000  0.00000  0.00000  0.00000  0.00000
2284 354156.100  -2169662.8230   4385182.7982   4078207.7434   2   6   0.0775   0.0621   0.0566  -0.0475   0.0189   0.0315   0.10    1.7    0.00000    0.00000    0.00000   0.00000  0.00000  0.00000  0.00000  0.00000  0.00000
2284 354156.200  -2169662.9257   4385182.7521   4078207.7279   2   6   0.0773   0.0620   0.0565  -0.0475   0.0188   0.0316   0.20    1.7    0.00000    0.00000    0.00000   0.00000  0.00000  0.00000  0.00000  0.00000  0.00000
2284 354156.300  -2169663.0254   4385182.7100   4078207.7226   2   6   0.0772   0.0619   0.0565  -0.0475   0.0186   0.0316   0.30    1.7    0.00000    0.00000    0.00000   0.00000  0.00000  0.00000  0.00000  0.00000  0.00000
2284 354156.400  -2169663.1226   4385182.6594   4078207.7371   2   6   0.0770   0.0618   0.0565  -0.0474   0.0184   0.0317   0.40    1.7    0.00000    0.00000    0.00000   0.00000  0.00000  0.00000  0.00000  0.00000  0.00000
2284 354156.500  -2169663.2014   4385182.5679   4078207.7489   2   6   0.0769   0.0617   0.0564  -0.0474   0.0182   0.0317   0.50    1.7    0.00000    0.00000    0.00000   0.00000  0.00000  0.00000  0.00000  0.00000  0.00000
2284 354156.600  -2169663.2675   4385182.4940   4078207.7716   2   6   0.0767   0.0616   0.0564  -0.0474   0.0181   0.0317  -0.40    1.7    0.00000    0.00000    0.00000   0.00000  0.00000  0.00000  0.00000  0.00000  0.00000
2284 354156.700  -2169663.3670   4385182.4584   4078207.7701   2   6   0.0765   0.0615   0.0563  -0.0473   0.0180   0.0317  -0.30    1.7    0.00000    0.00000    0.00000   0.00000  0.00000  0.00000  0.00000  0.00000  0.00000
2284 354156.800  -2169663.4729   4385182.4010   4078207.7765   2   6   0.0764   0.0614   0.0563  -0.0473   0.0178   0.0318  -0.20    1.7    0.00000    0.00000    0.00000   0.00000  0.00000  0.00000  0.00000  0.00000  0.00000
2284 354156.900  -2169663.6113   4385182.3356   4078207.7708   2   6   0.0762   0.0613   0.0562  -0.0472   0.0176   0.0318  -0.10    1.7    0.00000    0.00000    0.00000   0.00000  0.00000  0.00000  0.00000  0.00000  0.00000
2284 354157.000  -2169663.7418   4385182.2492   4078207.7880   2   6   0.0761   0.0612   0.0562  -0.0472   0.0175   0.0318   0.00    1.7    0.00000    0.00000    0.00000   0.00000  0.00000  0.00000  0.00000  0.00000  0.00000
2284 354157.100  -2169663.8624   4385182.1405   4078207.7897   2   6   0.0759   0.0612   0.0561  -0.0471   0.0173   0.0318   0.10    1.7    0.00000    0.00000    0.00000   0.00000  0.00000  0.00000  0.00000  0.00000  0.00000
2284 354157.200  -2169664.0059   4385182.0923   4078207.8001   2   6   0.0758   0.0611   0.0561  -0.0471   0.0171   0.0319   0.20    1.7    0.00000    0.00000    0.00000   0.00000  0.00000  0.00000  0.00000  0.00000  0.00000
2284 354157.300  -2169664.1306   4385182.0381   4078207.8022   2   6   0.0756   0.0610   0.0560  -0.0471   0.0170   0.0319   0.30    1.7    0.00000    0.00000    0.00000   0.00000  0.00000  0.00000  0.00000  0.00000  0.00000
2284 354157.400  -2169664.2377   4385181.9653   4078207.8039   2   6   0.0755   0.0609   0.0560  -0.0470   0.0168   0.0320   0.40    1.7    0.00000    0.00000    0.00000   0.00000  0.00000  0.00000  0.00000  0.00000  0.00000
2284 354157.500  -2169664.3488   4385181.8999   4078207.8242   2   6   0.0754   0.0608   0.0560  -0.0470   0.0166   0.0320   0.50    1.7    0.00000    0.00000    0.00000   0.00000  0.00000  0.00000  0.00000  0.00000  0.00000
2284 354157.600  -2169664.4513   4385181.8329   4078207.8412   2   6   0.0752   0.0607   0.0559  -0.0470   0.0165   0.0320  -0.40    1.7    0.00000    0.00000    0.00000   0.00000  0.00000  0.00000  0.00000  0.00000  0.00000
2284 354157.700  -2169664.5713   4385181.7570   4078207.8496   2   6   0.0751   0.0607   0.0559  -0.0469   0.0163   0.0320  -0.30    1.7    0.00000    0.00000    0.00000   0.00000  0.00000  0.00000  0.00000  0.00000  0.00000
2284 354157.800  -2169664.7218   4385181.6638   4078207.8390   2   6   0.0749   0.0606   0.0558  -0.0469   0.0162   0.0321  -0.20    1.7    0.00000    0.00000    0.00000   0.00000  0.00000  0.00000  0.00000  0.00000  0.00000
2284 354157.900  -2169664.8752   4385181.5892   4078207.8454   2   6   0.0748   0.0605   0.0558  -0.0468   0.0160   0.0321  -0.10    1.7    0.00000    0.00000    0.00000   0.00000  0.00000  0.00000  0.00000  0.00000  0.00000
2284 354158.000  -2169665.0184   4385181.4971   4078207.8708   2   6   0.0746   0.0604   0.0557  -0.0468   0.0159   0.0321   0.00    1.7    0.00000    0.00000    0.00000   0.00000  0.00000  0.00000  0.00000  0.00000  0.00000
2284 354158.100  -2169665.1782   4385181.4056   4078207.8642   2   6   0.0745   0.0603   0.0557  -0.0467   0.0157   0.0321   0.10    1.7    0.00000    0.00000    0.00000   0.00000  0.00000  0.00000  0.00000  0.00000  0.00000
2284 354158.200  -2169665.3171   4385181.3272   4078207.8755   2   6   0.0744   0.0602   0.0556  -0.0467   0.0155   0.0322   0.20    1.7    0.00000    0.00000    0.00000   0.00000  0.00000  0.00000  0.00000  0.00000  0.00000
2284 354158.300  -2169665.4460   4385181.2428   4078207.8594   2   6   0.0742   0.0602   0.0556  -0.0467   0.0153   0.0322   0.30    1.7    0.00000    0.00000    0.00000   0.00000  0.00000  0.00000  0.00000  0.00000  0.00000
2284 354158.400  -2169665.5296   4385181.1875   4078207.8883   2   6   0.0741   0.0601   0.0556  -0.0467   0.0151   0.0322   0.40    1.7    0.00000    0.00000    0.00000   0.00000  0.00000  0.00000  0.00000  0.00000  0.00000
