% obs start : 2023/10/19 02:22:12.0
% obs end   : 2023/10/19 02:27:13.3
%
%  GPST              x-ecef(m)      y-ecef(m)      z-ecef(m)   Q  ns   sdx(m)   sdy(m)   sdz(m)  sdxy(m)  sdyz(m)  sdzx(m) age(s)  ratio    vx(m/s)    vy(m/s)    vz(m/s)      sdvx     sdvy     sdvz    sdvxy    sdvyz    sdvzx
2284 354132.000  -2169636.8467   4385198.9884   4078201.7691   2   6   0.9961   1.0078   0.6949  -0.4817   0.6473   0.2811   0.00    0.0    0.00000    0.00000    0.00000   0.00000  0.00000  0.00000  0.00000  0.00000  0.00000
2284 354132.100  -2169636.8273   4385198.7672   4078201.8134   2   6   0.7067   0.7134   0.4923  -0.3405   0.4578   0.2008   0.10    0.0    0.00000    0.00000    0.00000   0.00000  0.00000  0.00000  0.00000  0.00000  0.00000
2284 354132.200  -2169637.1519   4385199.3841   4078202.2727   2   6   0.5777   0.5828   0.4022  -0.2781   0.3739   0.1645   0.20    0.0    0.00000    0.00000    0.00000   0.00000  0.00000  0.00000  0.00000  0.00000  0.00000
2284 354132.300  -2169637.3588   4385199.7404   4078202.6018   2   6   0.5006   0.5049   0.3485  -0.2409   0.3239   0.1426   0.30    0.0    0.00000    0.00000    0.00000   0.00000  0.00000  0.00000  0.00000  0.00000  0.00000
2284 354132.400  -2169637.3503   4385199.5476   4078202.6535   2   5   0.4797   0.4523   0.3126  -0.2130   0.2905   0.1390   0.40    0.0    0.00000    0.00000    0.00000   0.00000  0.00000  0.00000  0.00000  0.00000  0.00000
2284 354132.500  -2169638.9475   4385199.8131   4078203.4805   1   6   0.0198   0.0279   0.0157  -0.0201   0.0200  -0.0138   0.50    0.0    0.00000    0.00000    0.00000   0.00000  0.00000  0.00000  0.00000  0.00000  0.00000
2284 354132.600  -2169638.6475   4385199.2921   4078202.6431   1   6   0.0143   0.0259   0.0147  -0.0163   0.0188  -0.0111  -0.40    0.0    0.00000    0.00000    0.00000   0.00000  0.00000  0.00000  0.00000  0.00000  0.00000
2284 354132.700  -2169638.7058   4385199.1290   4078202.7420   1   6   0.0143   0.0258   0.0148  -0.0163   0.0187  -0.0111  -0.30    0.0    0.00000    0.00000    0.00000   0.00000  0.00000  0.00000  0.00000  0.00000  0.00000
2284 354132.800  -2169638.7696   4385198.9799   4078202.8755   1   6   0.0143   0.0258   0.0147  -0.0162   0.0187  -0.0111  -0.20    0.0    0.00000    0.00000    0.00000   0.00000  0.00000  0.00000  0.00000  0.00000  0.00000
2284 354132.900  -2169639.1392   4385199.1408   4078203.9151   1   5   0.0336   0.0344   0.0182  -0.0309   0.0243  -0.0212  -0.10    0.0    0.00000    0.00000    0.00000   0.00000  0.00000  0.00000  0.00000  0.00000  0.00000
2284 354133.000  -2169639.1610   4385198.9109   4078203.9814   1   5   0.0336   0.0344   0.0182  -0.0309   0.0243  -0.0212   0.00    0.0    0.00000    0.00000    0.00000   0.00000  0.00000  0.00000  0.00000  0.00000  0.00000
2284 354133.100  -2169639.2844   4385198.8202   4078204.1206   1   5   0.0336   0.0344   0.0181  -0.0309   0.0243  -0.0212   0.10    0.0    0.00000    0.00000    0.00000   0.00000  0.00000  0.00000  0.00000  0.00000  0.00000
2284 354133.200  -2169639.3475   4385198.7333   4078204.2425   1   5   0.0336   0.0344   0.0182  -0.0309   0.0243  -0.0212   0.20    0.0    0.00000    0.00000    0.00000   0.00000  0.00000  0.00000  0.00000  0.00000  0.00000
2284 354133.300  -2169639.4352   4385198.6403   4078204.3364   1   5   0.0337   0.0345   0.0183  -0.0310   0.0244  -0.0212   0.30    0.0    0.00000    0.00000    0.00000   0.00000  0.00000  0.00000  0.00000  0.00000  0.00000
2284 354133.400  -2169639.5639   4385198.5726   4078204.4477   1   5   0.0337   0.0345   0.0182  -0.0310   0.0244  -0.0213   0.40    0.0    0.00000    0.00000    0.00000   0.00000  0.00000  0.00000  0.00000  0.00000  0.00000
2284 354133.500  -2169639.6252   4385198.4615   4078204.5426   1   5   0.0338   0.0346   0.0182  -0.0311   0.0245  -0.0213   0.50    0.0    0.00000    0.00000    0.00000   0.00000  0.00000  0.00000  0.00000  0.00000  0.00000
2284 354133.600  -2169639.6257   4385198.3575   4078204.6009   1   5   0.0337   0.0345   0.0183  -0.0310   0.0244  -0.0213  -0.40    0.0    0.00000    0.00000    0.00000   0.00000  0.00000  0.00000  0.00000  0.00000  0.00000
2284 354133.700  -2169639.6255   4385198.2435   4078204.6418   1   5   0.0337   0.0344   0.0182  -0.0310   0.0244  -0.0212  -0.30    0.0    0.00000    0.00000    0.00000   0.00000  0.00000  0.00000  0.00000  0.00000  0.00000
2284 354133.800  -2169639.7045   4385198.1333   4078204.6970   1   5   0.0336   0.0344   0.0182  -0.0309   0.0243  -0.0212  -0.20    0.0    0.00000    0.00000    0.00000   0.00000  0.00000  0.00000  0.00000  0.00000  0.00000
2284 354133.900  -2169639.7549   4385198.0486   4078204.7734   1   5   0.0336   0.0344   0.0181  -0.0309   0.0244  -0.0212  -0.10    0.0    0.00000    0.00000    0.00000   0.00000  0.00000  0.00000  0.00000  0.00000  0.00000
2284 354134.000  -2169639.8747   4385197.9497   4078204.8759   1   5   0.0336   0.0344   0.0181  -0.0309   0.0243  -0.0212   0.00    0.0    0.00000    0.00000    0.00000   0.00000  0.00000  0.00000  0.00000  0.00000  0.00000
2284 354134.100  -2169640.0517   4385197.8930   4078205.0151   1   5   0.0336   0.0344   0.0182  -0.0309   0.0243  -0.0212   0.10    0.0    0.00000    0.00000    0.00000   0.00000  0.00000  0.00000  0.00000  0.00000  0.00000
2284 354134.200  -2169640.1008   4385197.7140   4078205.0698   1   5   0.0336   0.0344   0.0181  -0.0309   0.0243  -0.0212   0.20    0.0    0.00000    0.00000    0.00000   0.00000  0.00000  0.00000  0.00000  0.00000  0.00000
2284 354134.300  -2169640.0883   4385197.5826   4078205.1111   1   5   0.0337   0.0344   0.0182  -0.0310   0.0244  -0.0212   0.30    0.0    0.00000    0.00000    0.00000   0.00000  0.00000  0.00000  0.00000  0.00000  0.00000
2284 354134.400  -2169640.1386   4385197.5305   4078205.1401   1   6   0.0337   0.0345   0.0182  -0.0310   0.0244  -0.0213   0.40    0.0    0.00000    0.00000    0.00000   0.00000  0.00000  0.00000  0.00000  0.00000  0.00000
2284 354134.500  -2169640.1598   4385197.4981   4078205.1486   1   6   0.0312   0.0281   0.0152  -0.0268   0.0199  -0.0183   0.50    0.0    0.00000    0.00000    0.00000   0.00000  0.00000  0.00000  0.00000  0.00000  0.00000
2284 354134.600  -2169640.2107   4385197.5063   4078205.1671   1   6   0.0302   0.0256   0.0140  -0.0251   0.0181  -0.0172  -0.40    0.0    0.00000    0.00000    0.00000   0.00000  0.00000  0.00000  0.00000  0.00000  0.00000
2284 354134.700  -2169640.2145   4385197.4953   4078205.1743   1   7   0.0297   0.0242   0.0133  -0.0242   0.0172  -0.0166  -0.30    0.0    0.00000    0.00000    0.00000   0.00000  0.00000  0.00000  0.00000  0.00000  0.00000
2284 354134.800  -2169640.2112   4385197.4723   4078205.1809   1   8   0.0274   0.0232   0.0128  -0.0231   0.0166  -0.0161  -0.20    0.0    0.00000    0.00000    0.00000   0.00000  0.00000  0.00000  0.00000  0.00000  0.00000
2284 354134.900  -2169639.8809   4385197.0610   4078204.2804   1   8   0.0239   0.0184   0.0104  -0.0193   0.0130  -0.0133  -0.10    0.0    0.00000    0.00000    0.00000   0.00000  0.00000  0.00000  0.00000  0.00000  0.00000
2284 354135.000  -2169639.9294   4385196.9596   4078204.3201   1   8   0.0230   0.0181   0.0101  -0.0187   0.0127  -0.0128   0.00    0.0    0.00000    0.00000    0.00000   0.00000  0.00000  0.00000  0.00000  0.00000  0.00000
2284 354135.100  -2169639.9711   4385196.8393   4078204.3851   1   8   0.0225   0.0179   0.0100  -0.0184   0.0124  -0.0126   0.10    0.0    0.00000    0.00000    0.00000   0.00000  0.00000  0.00000  0.00000  0.00000  0.00000
2284 354135.200  -2169640.0172   4385196.7086   4078204.4595   1   8   0.0213   0.0177   0.0099  -0.0179   0.0123  -0.0124   0.20    0.0    0.00000    0.00000    0.00000   0.00000  0.00000  0.00000  0.00000  0.00000  0.00000
2284 354135.300  -2169640.0497   4385196.5328   4078204.5207   1   8   0.0206   0.0173   0.0094  -0.0174   0.0120  -0.0118   0.30    0.0    0.00000    0.00000    0.00000   0.00000  0.00000  0.00000  0.00000  0.00000  0.00000
2284 354135.400  -2169640.2449   4385196.4617   4078204.6499   1   7   0.0239   0.0193   0.0113  -0.0202   0.0139  -0.0146   0.40    0.0    0.00000    0.00000    0.00000   0.00000  0.00000  0.00000  0.00000  0.00000  0.00000
2284 354135.500  -2169640.3053   4385196.3501   4078204.7190   1   7   0.0240   0.0194   0.0113  -0.0202   0.0140  -0.0146   0.50    0.0    0.00000    0.00000    0.00000   0.00000  0.00000  0.00000  0.00000  0.00000  0.00000
2284 354135.600  -2169640.4179   4385196.2982   4078204.7732   1   7   0.0239   0.0193   0.0113  -0.0202   0.0140  -0.0146  -0.40    0.0    0.00000    0.00000    0.00000   0.00000  0.00000  0.00000  0.00000  0.00000  0.00000
2284 354135.700  -2169640.3832   4385196.2240   4078204.7853   1   7   0.0239   0.0193   0.0112  -0.0201   0.0140  -0.0146  -0.30    0.0    0.00000    0.00000    0.00000   0.00000  0.00000  0.00000  0.00000  0.00000  0.00000
2284 354135.800  -2169640.3669   4385196.1911   4078204.8099   1   7   0.0239   0.0193   0.0110  -0.0201   0.0140  -0.0145  -0.20    0.0    0.00000    0.00000    0.00000   0.00000  0.00000  0.00000  0.00000  0.00000  0.00000
2284 354135.900  -2169640.6177   4385196.2392   4078204.8339   1   6   0.0282   0.0197   0.0112  -0.0214   0.0139  -0.0146  -0.10    0.0    0.00000    0.00000    0.00000   0.00000  0.00000  0.00000  0.00000  0.00000  0.00000
2284 354136.000  -2169640.6275   4385196.2423   4078204.8399   1   6   0.0282   0.0196   0.0111  -0.0215   0.0140  -0.0146   0.00    0.0    0.00000    0.00000    0.00000   0.00000  0.00000  0.00000  0.00000  0.00000  0.00000
2284 354136.100  -2169640.6411   4385196.2126   4078204.8382   1   6   0.0282   0.0196   0.0112  -0.0215   0.0139  -0.0146   0.10    0.0    0.00000    0.00000    0.00000   0.00000  0.00000  0.00000  0.00000  0.00000  0.00000
2284 354136.200  -2169640.7206   4385196.1511   4078204.8620   1   6   0.0282   0.0197   0.0111  -0.0215   0.0140  -0.0147   0.20    0.0    0.00000    0.00000    0.00000   0.00000  0.00000  0.00000  0.00000  0.00000  0.00000
2284 354136.300  -2169640.8152   4385196.0577   4078204.8912   1   6   0.0282   0.0197   0.0111  -0.0215   0.0140  -0.0147   0.30    0.0    0.00000    0.00000    0.00000   0.00000  0.00000  0.00000  0.00000  0.00000  0.00000
2284 354136.400  -2169640.9279   4385195.9590   4078204.9199   1   6   0.0283   0.0197   0.0113  -0.0215   0.0140  -0.0147   0.40    0.0    0.00000    0.00000    0.00000   0.00000  0.00000  0.00000  0.00000  0.00000  0.00000
2284 354136.500  -2169641.0043   4385195.8481   4078204.9493   1   6   0.0284   0.0197   0.0110  -0.0216   0.0141  -0.0147   0.50    0.0    0.00000    0.00000    0.00000   0.00000  0.00000  0.00000  0.00000  0.00000  0.00000
2284 354136.600  -2169641.1083   4385195.7910   4078205.0001   1   6   0.0283   0.0197   0.0112  -0.0215   0.0140  -0.0147  -0.40    0.0    0.00000    0.00000    0.00000   0.00000  0.00000  0.00000  0.00000  0.00000  0.00000
2284 354136.700  -2169641.1680   4385195.7709   4078205.0026   1   6   0.0282   0.0197   0.0112  -0.0215   0.0140  -0.0147  -0.30    0.0    0.00000    0.00000    0.00000   0.00000  0.00000  0.00000  0.00000  0.00000  0.00000
2284 354136.800  -2169641.1508   4385195.7711   4078205.0054   1   6   0.0282   0.0197   0.0112  -0.0215   0.0139  -0.0147  -0.20    0.0    0.00000    0.00000    0.00000   0.00000  0.00000  0.00000  0.00000  0.00000  0.00000
2284 354136.900  -2169641.1248   4385195.7736   4078205.0048   1   6   0.0282   0.0197   0.0112  -0.0215   0.0140  -0.0146  -0.10    0.0    0.00000    0.00000    0.00000   0.00000  0.00000  0.00000  0.00000  0.00000  0.00000
2284 354137.000  -2169641.1224   4385195.7729   4078205.0028   1   6   0.0282   0.0196   0.0112  -0.0214   0.0139  -0.0146   0.00    0.0    0.00000    0.00000    0.00000   0.00000  0.00000  0.00000  0.00000  0.00000  0.00000
2284 354137.100  -2169641.1250   4385195.7685   4078205.0027   1   6   0.0282   0.0197   0.0112  -0.0215   0.0139  -0.0147   0.10    0.0    0.00000    0.00000    0.00000   0.00000  0.00000  0.00000  0.00000  0.00000  0.00000
2284 354137.200  -2169641.1397   4385195.7688   4078205.0069   1   6   0.0282   0.0197   0.0112  -0.0215   0.0140  -0.0147   0.20    0.0    0.00000    0.00000    0.00000   0.00000  0.00000  0.00000  0.00000  0.00000  0.00000
2284 354137.300  -2169641.1552   4385195.7757   4078205.0082   1   6   0.0282   0.0196   0.0111  -0.0215   0.0140  -0.0147   0.30    0.0    0.00000    0.00000    0.00000   0.00000  0.00000  0.00000  0.00000  0.00000  0.00000
2284 354137.400  -2169641.1714   4385195.7627   4078205.0040   1   6   0.0283   0.0197   0.0113  -0.0215   0.0140  -0.0147   0.40    0.0    0.00000    0.00000    0.00000   0.00000  0.00000  0.00000  0.00000  0.00000  0.00000
2284 354137.500  -2169641.2308   4385195.7131   4078204.9990   1   6   0.0284   0.0198   0.0114  -0.0216   0.0140  -0.0147   0.50    0.0    0.00000    0.00000    0.00000   0.00000  0.00000  0.00000  0.00000  0.00000  0.00000
2284 354137.600  -2169641.3504   4385195.6842   4078205.0136   1   6   0.0323   0.0219   0.0148  -0.0248   0.0170  -0.0192  -0.40    0.0    0.00000    0.00000    0.00000   0.00000  0.00000  0.00000  0.00000  0.00000  0.00000
2284 354137.700  -2169641.4529   4385195.6794   4078205.0273   1   6   0.0303   0.0208   0.0132  -0.0232   0.0155  -0.0171  -0.30    0.0    0.00000    0.00000    0.00000   0.00000  0.00000  0.00000  0.00000  0.00000  0.00000
2284 354137.800  -2169641.8667   4385196.0104   4078206.0432   1   6   0.0322   0.0227   0.0152  -0.0252   0.0138  -0.0153  -0.20    0.0    0.00000    0.00000    0.00000   0.00000  0.00000  0.00000  0.00000  0.00000  0.00000
2284 354137.900  -2169641.8567   4385195.9341   4078206.0358   1   6   0.0303   0.0213   0.0152  -0.0234   0.0135  -0.0150  -0.10    0.0    0.00000    0.00000    0.00000   0.00000  0.00000  0.00000  0.00000  0.00000  0.00000
2284 354138.000  -2169641.9657   4385195.8911   4078206.0424   1   6   0.0322   0.0226   0.0150  -0.0252   0.0138  -0.0153   0.00    0.0    0.00000    0.00000    0.00000   0.00000  0.00000  0.00000  0.00000  0.00000  0.00000
2284 354138.100  -2169642.1345   4385195.8535   4078205.9749   1   6   0.0322   0.0226   0.0113  -0.0252   0.0144  -0.0152   0.10    0.0    0.00000    0.00000    0.00000   0.00000  0.00000  0.00000  0.00000  0.00000  0.00000
2284 354138.200  -2169642.2949   4385195.7705   4078205.9452   1   6   0.0303   0.0212   0.0112  -0.0234   0.0141  -0.0149   0.20    0.0    0.00000    0.00000    0.00000   0.00000  0.00000  0.00000  0.00000  0.00000  0.00000
2284 354138.300  -2169642.5135   4385195.7551   4078205.9709   1   6   0.0296   0.0207   0.0112  -0.0228   0.0141  -0.0148   0.30    0.0    0.00000    0.00000    0.00000   0.00000  0.00000  0.00000  0.00000  0.00000  0.00000
2284 354138.400  -2169642.5925   4385195.6866   4078205.9722   1   5   0.0305   0.0214   0.0113  -0.0236   0.0143  -0.0151   0.40    0.0    0.00000    0.00000    0.00000   0.00000  0.00000  0.00000  0.00000  0.00000  0.00000
2284 354138.500  -2169642.6775   4385195.5970   4078205.9697   1   5   0.0304   0.0214   0.0113  -0.0236   0.0143  -0.0151   0.50    0.0    0.00000    0.00000    0.00000   0.00000  0.00000  0.00000  0.00000  0.00000  0.00000
2284 354138.600  -2169642.4101   4385195.1050   4078205.0526   1   5   0.0298   0.0210   0.0113  -0.0231   0.0143  -0.0150  -0.40    0.0    0.00000    0.00000    0.00000   0.00000  0.00000  0.00000  0.00000  0.00000  0.00000
2284 354138.700  -2169642.5377   4385195.0005   4078205.0609   1   5   0.0298   0.0210   0.0113  -0.0230   0.0143  -0.0150  -0.30    0.0    0.00000    0.00000    0.00000   0.00000  0.00000  0.00000  0.00000  0.00000  0.00000
2284 354138.800  -2169642.9628   4385195.1974   4078205.4833   1   5   0.0323   0.0220   0.0156  -0.0248   0.0166  -0.0190  -0.20    0.0    0.00000    0.00000    0.00000   0.00000  0.00000  0.00000  0.00000  0.00000  0.00000
2284 354138.900  -2169643.0780   4385195.1248   4078205.4818   1   5   0.0310   0.0215   0.0136  -0.0239   0.0154  -0.0171  -0.10    0.0    0.00000    0.00000    0.00000   0.00000  0.00000  0.00000  0.00000  0.00000  0.00000
2284 354139.000  -2169643.1185   4385195.0709   4078205.4768   1   5   0.0312   0.0217   0.0137  -0.0241   0.0156  -0.0173   0.00    0.0    0.00000    0.00000    0.00000   0.00000  0.00000  0.00000  0.00000  0.00000  0.00000
2284 354139.100  -2169643.4035   4385195.2339   4078206.0062   1   5   0.0322   0.0227   0.0170  -0.0252   0.0138  -0.0155   0.10    0.0    0.00000    0.00000    0.00000   0.00000  0.00000  0.00000  0.00000  0.00000  0.00000
2284 354139.200  -2169643.4995   4385195.1577   4078206.0134   1   5   0.0322   0.0227   0.0169  -0.0252   0.0138  -0.0155   0.20    0.0    0.00000    0.00000    0.00000   0.00000  0.00000  0.00000  0.00000  0.00000  0.00000
2284 354139.300  -2169643.5141   4385194.9541   4078205.4931   1   5   0.0307   0.0216   0.0126  -0.0238   0.0152  -0.0164   0.30    0.0    0.00000    0.00000    0.00000   0.00000  0.00000  0.00000  0.00000  0.00000  0.00000
2284 354139.400  -2169643.6023   4385194.8894   4078205.4743   1   5   0.0308   0.0216   0.0126  -0.0239   0.0152  -0.0164   0.40    0.0    0.00000    0.00000    0.00000   0.00000  0.00000  0.00000  0.00000  0.00000  0.00000
2284 354139.500  -2169643.6014   4385194.7908   4078205.4658   1   5   0.0309   0.0216   0.0126  -0.0239   0.0153  -0.0164   0.50    0.0    0.00000    0.00000    0.00000   0.00000  0.00000  0.00000  0.00000  0.00000  0.00000
2284 354139.600  -2169643.8663   4385194.9443   4078206.0934   1   4   0.0324   0.0243   0.0541  -0.0250  -0.0158  -0.0176  -0.40    0.0    0.00000    0.00000    0.00000   0.00000  0.00000  0.00000  0.00000  0.00000  0.00000
2284 354139.700  -2169643.9098   4385194.8908   4078206.0968   1   4   0.0323   0.0243   0.0540  -0.0250  -0.0157  -0.0176  -0.30    0.0    0.00000    0.00000    0.00000   0.00000  0.00000  0.00000  0.00000  0.00000  0.00000
2284 354139.800  -2169643.9295   4385194.8271   4078206.0854   1   4   0.0323   0.0242   0.0540  -0.0250  -0.0156  -0.0176  -0.20    0.0    0.00000    0.00000    0.00000   0.00000  0.00000  0.00000  0.00000  0.00000  0.00000
2284 354139.900  -2169643.9932   4385194.8230   4078206.1108   1   4   0.0322   0.0242   0.0539  -0.0249  -0.0156  -0.0176  -0.10    0.0    0.00000    0.00000    0.00000   0.00000  0.00000  0.00000  0.00000  0.00000  0.00000
2284 354140.000  -2169644.1034   4385194.8568   4078206.1352   1   4   0.0322   0.0242   0.0539  -0.0249  -0.0156  -0.0176   0.00    0.0    0.00000    0.00000    0.00000   0.00000  0.00000  0.00000  0.00000  0.00000  0.00000
2284 354140.100  -2169644.1527   4385194.8454   4078206.0800   1   4   0.0322   0.0242   0.0539  -0.0249  -0.0156  -0.0176   0.10    0.0    0.00000    0.00000    0.00000   0.00000  0.00000  0.00000  0.00000  0.00000  0.00000
2284 354140.200  -2169644.1598   4385194.8135   4078206.0638   1   4   0.0323   0.0242   0.0540  -0.0250  -0.0156  -0.0176   0.20    0.0    0.00000    0.00000    0.00000   0.00000  0.00000  0.00000  0.00000  0.00000  0.00000
2284 354140.300  -2169644.1504   4385194.7517   4078206.1079   1   5   0.0323   0.0242   0.0540  -0.0250  -0.0157  -0.0176   0.30    0.0    0.00000    0.00000    0.00000   0.00000  0.00000  0.00000  0.00000  0.00000  0.00000
2284 354140.400  -2169644.1822   4385194.7126   4078206.0400   1   5   0.0291   0.0227   0.0538  -0.0225  -0.0139  -0.0200   0.40    0.0    0.00000    0.00000    0.00000   0.00000  0.00000  0.00000  0.00000  0.00000  0.00000
2284 354140.500  -2169644.3662   4385194.7420   4078206.0248   1   5   0.0279   0.0223   0.0537  -0.0216  -0.0134  -0.0207   0.50    0.0    0.00000    0.00000    0.00000   0.00000  0.00000  0.00000  0.00000  0.00000  0.00000
2284 354140.600  -2169644.5096   4385194.6922   4078206.0864   1   5   0.0273   0.0219   0.0536  -0.0211  -0.0129  -0.0211  -0.40    0.0    0.00000    0.00000    0.00000   0.00000  0.00000  0.00000  0.00000  0.00000  0.00000
2284 354140.700  -2169644.5635   4385194.5820   4078206.1692   1   5   0.0269   0.0217   0.0535  -0.0208  -0.0127  -0.0213  -0.30    0.0    0.00000    0.00000    0.00000   0.00000  0.00000  0.00000  0.00000  0.00000  0.00000
2284 354140.800  -2169644.5687   4385194.4923   4078206.1121   1   5   0.0253   0.0210   0.0533  -0.0196  -0.0118  -0.0221  -0.20    0.0    0.00000    0.00000    0.00000   0.00000  0.00000  0.00000  0.00000  0.00000  0.00000
2284 354140.900  -2169644.6926   4385194.4536   4078206.1047   1   5   0.0253   0.0210   0.0532  -0.0195  -0.0117  -0.0221  -0.10    0.0    0.00000    0.00000    0.00000   0.00000  0.00000  0.00000  0.00000  0.00000  0.00000
2284 354141.000  -2169644.8250   4385194.4221   4078206.0469   1   5   0.0252   0.0210   0.0532  -0.0195  -0.0117  -0.0221   0.00    0.0    0.00000    0.00000    0.00000   0.00000  0.00000  0.00000  0.00000  0.00000  0.00000
2284 354141.100  -2169644.9671   4385194.3419   4078206.0504   1   5   0.0253   0.0210   0.0532  -0.0195  -0.0117  -0.0221   0.10    0.0    0.00000    0.00000    0.00000   0.00000  0.00000  0.00000  0.00000  0.00000  0.00000
2284 354141.200  -2169645.1380   4385194.2606   4078206.0831   1   5   0.0253   0.0210   0.0533  -0.0196  -0.0117  -0.0221   0.20    0.0    0.00000    0.00000    0.00000   0.00000  0.00000  0.00000  0.00000  0.00000  0.00000
2284 354141.300  -2169645.3016   4385194.1764   4078206.1270   1   5   0.0253   0.0211   0.0533  -0.0196  -0.0118  -0.0221   0.30    0.0    0.00000    0.00000    0.00000   0.00000  0.00000  0.00000  0.00000  0.00000  0.00000
2284 354141.400  -2169645.2260   4385193.9090   4078205.6140   1   5   0.0254   0.0211   0.0534  -0.0196  -0.0119  -0.0221   0.40    0.0    0.00000    0.00000    0.00000   0.00000  0.00000  0.00000  0.00000  0.00000  0.00000
2284 354141.500  -2169645.3005   4385193.9108   4078205.5927   1   5   0.0254   0.0211   0.0535  -0.0197  -0.0119  -0.0221   0.50    0.0    0.00000    0.00000    0.00000   0.00000  0.00000  0.00000  0.00000  0.00000  0.00000
2284 354141.600  -2169645.3228   4385193.8815   4078205.5423   1   5   0.0254   0.0211   0.0534  -0.0196  -0.0119  -0.0221  -0.40    0.0    0.00000    0.00000    0.00000   0.00000  0.00000  0.00000  0.00000  0.00000  0.00000
2284 354141.700  -2169645.4076   4385193.8330   4078205.5686   1   5   0.0253   0.0211   0.0533  -0.0196  -0.0118  -0.0221  -0.30    0.0    0.00000    0.00000    0.00000   0.00000  0.00000  0.00000  0.00000  0.00000  0.00000
2284 354141.800  -2169645.5335   4385193.7924   4078205.5596   1   5   0.0253   0.0210   0.0533  -0.0196  -0.0117  -0.0221  -0.20    0.0    0.00000    0.00000    0.00000   0.00000  0.00000  0.00000  0.00000  0.00000  0.00000
2284 354141.900  -2169645.6344   4385193.7737   4078205.5777   1   5   0.0253   0.0210   0.0532  -0.0195  -0.0117  -0.0221  -0.10    0.0    0.00000    0.00000    0.00000   0.00000  0.00000  0.00000  0.00000  0.00000  0.00000
2284 354142.000  -2169645.6721   4385193.7413   4078205.5609   1   5   0.0253   0.0210   0.0532  -0.0195  -0.0117  -0.0221   0.00    0.0    0.00000    0.00000    0.00000   0.00000  0.00000  0.00000  0.00000  0.00000  0.00000
2284 354142.100  -2169645.6570   4385193.6994   4078205.5403   1   5   0.0253   0.0210   0.0532  -0.0195  -0.0117  -0.0221   0.10    0.0    0.00000    0.00000    0.00000   0.00000  0.00000  0.00000  0.00000  0.00000  0.00000
2284 354142.200  -2169645.7213   4385193.6656   4078205.5805   1   5   0.0253   0.0210   0.0533  -0.0196  -0.0117  -0.0221   0.20    0.0    0.00000    0.00000    0.00000   0.00000  0.00000  0.00000  0.00000  0.00000  0.00000
2284 354142.300  -2169645.8004   4385193.6220   4078205.5576   1   5   0.0253   0.0210   0.0533  -0.0196  -0.0118  -0.0221   0.30    0.0    0.00000    0.00000    0.00000   0.00000  0.00000  0.00000  0.00000  0.00000  0.00000
2284 354142.400  -2169645.8652   4385193.5393   4078205.5857   1   5   0.0254   0.0211   0.0534  -0.0196  -0.0118  -0.0221   0.40    0.0    0.00000    0.00000    0.00000   0.00000  0.00000  0.00000  0.00000  0.00000  0.00000
2284 354142.500  -2169645.9968   4385193.4361   4078205.7130   1   5   0.0254   0.0211   0.0535  -0.0197  -0.0119  -0.0222   0.50    0.0    0.00000    0.00000    0.00000   0.00000  0.00000  0.00000  0.00000  0.00000  0.00000
2284 354142.600  -2169646.1422   4385193.3503   4078205.7025   1   5   0.0254   0.0211   0.0534  -0.0196  -0.0118  -0.0221  -0.40    0.0    0.00000    0.00000    0.00000   0.00000  0.00000  0.00000  0.00000  0.00000  0.00000
2284 354142.700  -2169646.2955   4385193.2855   4078205.7401   1   5   0.0253   0.0210   0.0533  -0.0196  -0.0118  -0.0221  -0.30    0.0    0.00000    0.00000    0.00000   0.00000  0.00000  0.00000  0.00000  0.00000  0.00000
2284 354142.800  -2169646.3509   4385193.1595   4078205.7988   1   5   0.0253   0.0210   0.0533  -0.0195  -0.0117  -0.0221  -0.20    0.0    0.00000    0.00000    0.00000   0.00000  0.00000  0.00000  0.00000  0.00000  0.00000
2284 354142.900  -2169646.4758   4385193.0542   4078205.8657   1   5   0.0253   0.0210   0.0532  -0.0195  -0.0117  -0.0221  -0.10    0.0    0.00000    0.00000    0.00000   0.00000  0.00000  0.00000  0.00000  0.00000  0.00000
2284 354143.000  -2169646.6117   4385192.9374   4078205.8538   1   5   0.0253   0.0210   0.0532  -0.0195  -0.0117  -0.0221   0.00    0.0    0.00000    0.00000    0.00000   0.00000  0.00000  0.00000  0.00000  0.00000  0.00000
2284 354143.100  -2169646.7699   4385192.8352   4078205.8794   1   5   0.0253   0.0210   0.0532  -0.0195  -0.0117  -0.0221   0.10    0.0    0.00000    0.00000    0.00000   0.00000  0.00000  0.00000  0.00000  0.00000  0.00000
2284 354143.200  -2169646.9147   4385192.6957   4078206.0188   1   5   0.0253   0.0210   0.0533  -0.0196  -0.0117  -0.0221   0.20    0.0    0.00000    0.00000    0.00000   0.00000  0.00000  0.00000  0.00000  0.00000  0.00000
2284 354143.300  -2169647.0295   4385192.5479   4078206.0888   1   5   0.0253   0.0210   0.0533  -0.0196  -0.0118  -0.0221   0.30    0.0    0.00000    0.00000    0.00000   0.00000  0.00000  0.00000  0.00000  0.00000  0.00000
2284 354143.400  -2169647.1923   4385192.3928   4078206.2256   1   5   0.0254   0.0211   0.0534  -0.0196  -0.0118  -0.0221   0.40    0.0    0.00000    0.00000    0.00000   0.00000  0.00000  0.00000  0.00000  0.00000  0.00000
2284 354143.500  -2169647.2938   4385192.2138   4078206.3631   1   5   0.0254   0.0211   0.0535  -0.0196  -0.0119  -0.0222   0.50    0.0    0.00000    0.00000    0.00000   0.00000  0.00000  0.00000  0.00000  0.00000  0.00000
2284 354143.600  -2169647.3746   4385192.0601   4078206.4256   1   5   0.0254   0.0211   0.0534  -0.0196  -0.0118  -0.0221  -0.40    0.0    0.00000    0.00000    0.00000   0.00000  0.00000  0.00000  0.00000  0.00000  0.00000
2284 354143.700  -2169647.4888   4385191.9092   4078206.5376   1   5   0.0253   0.0210   0.0533  -0.0196  -0.0117  -0.0221  -0.30    0.0    0.00000    0.00000    0.00000   0.00000  0.00000  0.00000  0.00000  0.00000  0.00000
2284 354143.800  -2169647.5629   4385191.7547   4078206.6829   1   5   0.0253   0.0210   0.0533  -0.0195  -0.0117  -0.0221  -0.20    0.0    0.00000    0.00000    0.00000   0.00000  0.00000  0.00000  0.00000  0.00000  0.00000
2284 354143.900  -2169647.6346   4385191.6107   4078206.8414   1   5   0.0253   0.0210   0.0532  -0.0195  -0.0117  -0.0221  -0.10    0.0    0.00000    0.00000    0.00000   0.00000  0.00000  0.00000  0.00000  0.00000  0.00000
2284 354144.000  -2169647.6615   4385191.5176   4078206.8459   1   5   0.0253   0.0210   0.0532  -0.0195  -0.0117  -0.0221   0.00    0.0    0.00000    0.00000    0.00000   0.00000  0.00000  0.00000  0.00000  0.00000  0.00000
2284 354144.100  -2169647.6980   4385191.4677   4078206.8916   1   5   0.0253   0.0210   0.0533  -0.0195  -0.0117  -0.0221   0.10    0.0    0.00000    0.00000    0.00000   0.00000  0.00000  0.00000  0.00000  0.00000  0.00000
2284 354144.200  -2169647.7243   4385191.3984   4078206.9441   1   5   0.0253   0.0210   0.0533  -0.0195  -0.0117  -0.0221   0.20    0.0    0.00000    0.00000    0.00000   0.00000  0.00000  0.00000  0.00000  0.00000  0.00000
2284 354144.300  -2169647.7747   4385191.3342   4078206.9444   1   5   0.0253   0.0210   0.0533  -0.0196  -0.0117  -0.0221   0.30    0.0    0.00000    0.00000    0.00000   0.00000  0.00000  0.00000  0.00000  0.00000  0.00000
2284 354144.400  -2169647.8499   4385191.2565   4078207.0481   1   5   0.0254   0.0211   0.0534  -0.0196  -0.0118  -0.0222   0.40    0.0    0.00000    0.00000    0.00000   0.00000  0.00000  0.00000  0.00000  0.00000  0.00000
2284 354144.500  -2169647.9468   4385191.2091   4078207.0902   1   5   0.0254   0.0211   0.0535  -0.0196  -0.0119  -0.0222   0.50    0.0    0.00000    0.00000    0.00000   0.00000  0.00000  0.00000  0.00000  0.00000  0.00000
2284 354144.600  -2169648.0270   4385191.1440   4078207.0721   1   5   0.0254   0.0211   0.0534  -0.0196  -0.0118  -0.0221  -0.40    0.0    0.00000    0.00000    0.00000   0.00000  0.00000  0.00000  0.00000  0.00000  0.00000
2284 354144.700  -2169648.1437   4385191.0990   4078206.9798   1   5   0.0253   0.0210   0.0533  -0.0196  -0.0117  -0.0221  -0.30    0.0    0.00000    0.00000    0.00000   0.00000  0.00000  0.00000  0.00000  0.00000  0.00000
2284 354144.800  -2169648.2886   4385191.0291   4078207.0445   1   5   0.0253   0.0210   0.0533  -0.0195  -0.0117  -0.0221  -0.20    0.0    0.00000    0.00000    0.00000   0.00000  0.00000  0.00000  0.00000  0.00000  0.00000
2284 354144.900  -2169648.3992   4385190.9611   4078207.0520   1   5   0.0253   0.0210   0.0533  -0.0195  -0.0116  -0.0221  -0.10    0.0    0.00000    0.00000    0.00000   0.00000  0.00000  0.00000  0.00000  0.00000  0.00000
2284 354145.000  -2169648.5001   4385190.9495   4078207.0392   1   5   0.0253   0.0210   0.0532  -0.0195  -0.0116  -0.0221   0.00    0.0    0.00000    0.00000    0.00000   0.00000  0.00000  0.00000  0.00000  0.00000  0.00000
2284 354145.100  -2169648.5367   4385190.9355   4078207.0306   1   5   0.0253   0.0210   0.0533  -0.0195  -0.0116  -0.0221   0.10    0.0    0.00000    0.00000    0.00000   0.00000  0.00000  0.00000  0.00000  0.00000  0.00000
2284 354145.200  -2169648.5522   4385190.9001   4078207.0245   1   5   0.0253   0.0210   0.0533  -0.0195  -0.0117  -0.0221   0.20    0.0    0.00000    0.00000    0.00000   0.00000  0.00000  0.00000  0.00000  0.00000  0.00000
2284 354145.300  -2169648.5627   4385190.8867   4078207.0294   1   5   0.0253   0.0210   0.0534  -0.0195  -0.0117  -0.0221   0.30    0.0    0.00000    0.00000    0.00000   0.00000  0.00000  0.00000  0.00000  0.00000  0.00000
2284 354145.400  -2169648.5683   4385190.8917   4078207.0265   1   5   0.0254   0.0211   0.0534  -0.0196  -0.0118  -0.0222   0.40    0.0    0.00000    0.00000    0.00000   0.00000  0.00000  0.00000  0.00000  0.00000  0.00000
2284 354145.500  -2169648.5806   4385190.9035   4078207.0218   1   5   0.0254   0.0211   0.0535  -0.0196  -0.0118  -0.0222   0.50    0.0    0.00000    0.00000    0.00000   0.00000  0.00000  0.00000  0.00000  0.00000  0.00000
2284 354145.600  -2169648.5943   4385190.8649   4078207.0601   1   5   0.0254   0.0211   0.0534  -0.0196  -0.0118  -0.0222  -0.40    0.0    0.00000    0.00000    0.00000   0.00000  0.00000  0.00000  0.00000  0.00000  0.00000
2284 354145.700  -2169648.6673   4385190.8173   4078207.0596   1   5   0.0253   0.0210   0.0534  -0.0196  -0.0117  -0.0222  -0.30    0.0    0.00000    0.00000    0.00000   0.00000  0.00000  0.00000  0.00000  0.00000  0.00000
2284 354145.800  -2169648.8053   4385190.7706   4078207.1445   1   5   0.0253   0.0210   0.0533  -0.0195  -0.0117  -0.0221  -0.20    0.0    0.00000    0.00000    0.00000   0.00000  0.00000  0.00000  0.00000  0.00000  0.00000
2284 354145.900  -2169648.8707   4385190.6753   4078207.1579   1   5   0.0253   0.0210   0.0533  -0.0195  -0.0116  -0.0221  -0.10    0.0    0.00000    0.00000    0.00000   0.00000  0.00000  0.00000  0.00000  0.00000  0.00000
2284 354146.000  -2169648.9453   4385190.6047   4078207.2239   1   5   0.0253   0.0210   0.0533  -0.0195  -0.0116  -0.0221   0.00    0.0    0.00000    0.00000    0.00000   0.00000  0.00000  0.00000  0.00000  0.00000  0.00000
2284 354146.100  -2169648.9599   4385190.5287   4078207.2163   1   5   0.0253   0.0210   0.0533  -0.0195  -0.0116  -0.0221   0.10    0.0    0.00000    0.00000    0.00000   0.00000  0.00000  0.00000  0.00000  0.00000  0.00000
2284 354146.200  -2169649.0047   4385190.4955   4078207.2390   1   5   0.0253   0.0210   0.0533  -0.0196  -0.0116  -0.0222   0.20    0.0    0.00000    0.00000    0.00000   0.00000  0.00000  0.00000  0.00000  0.00000  0.00000
2284 354146.300  -2169649.0739   4385190.4883   4078207.2853   1   6   0.0253   0.0210   0.0533  -0.0196  -0.0117  -0.0221   0.30    0.0    0.00000    0.00000    0.00000   0.00000  0.00000  0.00000  0.00000  0.00000  0.00000
2284 354146.400  -2169649.1359   4385190.4432   4078207.3183   1   6   0.0234   0.0211   0.0400  -0.0197  -0.0113  -0.0120   0.40    0.0    0.00000    0.00000    0.00000   0.00000  0.00000  0.00000  0.00000  0.00000  0.00000
2284 354146.500  -2169649.2073   4385190.4235   4078207.3233   1   6   0.0227   0.0211   0.0345  -0.0197  -0.0112  -0.0052   0.50    0.0    0.00000    0.00000    0.00000   0.00000  0.00000  0.00000  0.00000  0.00000  0.00000
2284 354146.600  -2169649.2889   4385190.3639   4078207.2891   1   6   0.0223   0.0210   0.0313  -0.0197  -0.0111   0.0054  -0.40    0.0    0.00000    0.00000    0.00000   0.00000  0.00000  0.00000  0.00000  0.00000  0.00000
2284 354146.700  -2169649.3793   4385190.2444   4078207.2772   1   7   0.0221   0.0210   0.0292  -0.0197  -0.0110   0.0079  -0.30    0.0    0.00000    0.00000    0.00000   0.00000  0.00000  0.00000  0.00000  0.00000  0.00000
2284 354146.800  -2169649.5323   4385190.1597   4078207.4530   1   7   0.0165   0.0172   0.0180  -0.0151  -0.0071   0.0114  -0.20    0.0    0.00000    0.00000    0.00000   0.00000  0.00000  0.00000  0.00000  0.00000  0.00000
2284 354146.900  -2169649.6667   4385190.0859   4078207.5053   1   7   0.0143   0.0154   0.0148  -0.0129  -0.0019   0.0085  -0.10    0.0    0.00000    0.00000    0.00000   0.00000  0.00000  0.00000  0.00000  0.00000  0.00000
2284 354147.000  -2169649.8115   4385190.0043   4078207.5091   1   7   0.0130   0.0146   0.0135  -0.0116   0.0040   0.0071   0.00    0.0    0.00000    0.00000    0.00000   0.00000  0.00000  0.00000  0.00000  0.00000  0.00000
2284 354147.100  -2169649.9546   4385189.8959   4078207.5276   1   7   0.0123   0.0140   0.0127  -0.0109   0.0052   0.0061   0.10    0.0    0.00000    0.00000    0.00000   0.00000  0.00000  0.00000  0.00000  0.00000  0.00000
2284 354147.200  -2169650.0333   4385189.7777   4078207.2871   1   7   0.0090   0.0117   0.0119  -0.0074   0.0074   0.0022   0.20    0.0    0.00000    0.00000    0.00000   0.00000  0.00000  0.00000  0.00000  0.00000  0.00000
2284 354147.300  -2169650.2533   4385189.6798   4078207.2763   1   7   0.0099   0.0122   0.0172  -0.0083   0.0038   0.0077   0.30    0.0    0.00000    0.00000    0.00000   0.00000  0.00000  0.00000  0.00000  0.00000  0.00000
2284 354147.400  -2169650.4814   4385189.5575   4078207.2946   1   7   0.0100   0.0122   0.0172  -0.0083   0.0039   0.0077   0.40    0.0    0.00000    0.00000    0.00000   0.00000  0.00000  0.00000  0.00000  0.00000  0.00000
2284 354147.500  -2169650.6087   4385189.2662   4078206.9233   1   7   0.0087   0.0116   0.0102  -0.0071   0.0081  -0.0027   0.50    0.0    0.00000    0.00000    0.00000   0.00000  0.00000  0.00000  0.00000  0.00000  0.00000
2284 354147.600  -2169650.8155   4385189.1510   4078206.9302   1   7   0.0087   0.0116   0.0102  -0.0071   0.0081  -0.0028  -0.40    0.0    0.00000    0.00000    0.00000   0.00000  0.00000  0.00000  0.00000  0.00000  0.00000
2284 354147.700  -2169650.9858   4385189.0752   4078206.9043   1   7   0.0087   0.0116   0.0102  -0.0072   0.0081  -0.0029  -0.30    0.0    0.00000    0.00000    0.00000   0.00000  0.00000  0.00000  0.00000  0.00000  0.00000
2284 354147.800  -2169651.1481   4385189.0132   4078206.8734   1   7   0.0087   0.0116   0.0102  -0.0071   0.0081  -0.0031  -0.20    0.0    0.00000    0.00000    0.00000   0.00000  0.00000  0.00000  0.00000  0.00000  0.00000
2284 354147.900  -2169651.3434   4385188.9388   4078206.8790   1   7   0.0087   0.0116   0.0102  -0.0072   0.0081  -0.0031  -0.10    0.0    0.00000    0.00000    0.00000   0.00000  0.00000  0.00000  0.00000  0.00000  0.00000
2284 354148.000  -2169651.5561   4385188.8371   4078206.8858   1   7   0.0086   0.0116   0.0101  -0.0070   0.0081  -0.0027   0.00    0.0    0.00000    0.00000    0.00000   0.00000  0.00000  0.00000  0.00000  0.00000  0.00000
2284 354148.100  -2169651.7894   4385188.7411   4078206.8540   1   7   0.0099   0.0122   0.0171  -0.0082   0.0039   0.0077   0.10    0.0    0.00000    0.00000    0.00000   0.00000  0.00000  0.00000  0.00000  0.00000  0.00000
2284 354148.200  -2169651.9295   4385188.6027   4078206.9429   1   7   0.0086   0.0116   0.0102  -0.0071   0.0081  -0.0027   0.20    0.0    0.00000    0.00000    0.00000   0.00000  0.00000  0.00000  0.00000  0.00000  0.00000
2284 354148.300  -2169652.1715   4385188.5350   4078206.8612   1   7   0.0099   0.0122   0.0172  -0.0082   0.0038   0.0077   0.30    0.0    0.00000    0.00000    0.00000   0.00000  0.00000  0.00000  0.00000  0.00000  0.00000
2284 354148.400  -2169652.3298   4385188.3940   4078206.9715   1   7   0.0086   0.0116   0.0102  -0.0071   0.0082  -0.0026   0.40    0.0    0.00000    0.00000    0.00000   0.00000  0.00000  0.00000  0.00000  0.00000  0.00000
2284 354148.500  -2169652.5610   4385188.2797   4078206.9563   1   7   0.0087   0.0116   0.0102  -0.0072   0.0082  -0.0028   0.50    0.0    0.00000    0.00000    0.00000   0.00000  0.00000  0.00000  0.00000  0.00000  0.00000
2284 354148.600  -2169652.7887   4385188.1987   4078206.8591   1   7   0.0099   0.0122   0.0172  -0.0083   0.0039   0.0077  -0.40    0.0    0.00000    0.00000    0.00000   0.00000  0.00000  0.00000  0.00000  0.00000  0.00000
2284 354148.700  -2169653.0118   4385188.0899   4078206.8730   1   7   0.0100   0.0122   0.0172  -0.0083   0.0038   0.0076  -0.30    0.0    0.00000    0.00000    0.00000   0.00000  0.00000  0.00000  0.00000  0.00000  0.00000
2284 354148.800  -2169653.2279   4385187.9929   4078206.8749   1   7   0.0099   0.0122   0.0171  -0.0083   0.0038   0.0076  -0.20    0.0    0.00000    0.00000    0.00000   0.00000  0.00000  0.00000  0.00000  0.00000  0.00000
2284 354148.900  -2169653.4478   4385187.9004   4078206.8962   1   7   0.0099   0.0122   0.0171  -0.0082   0.0039   0.0076  -0.10    0.0    0.00000    0.00000    0.00000   0.00000  0.00000  0.00000  0.00000  0.00000  0.00000
2284 354149.000  -2169653.6550   4385187.8180   4078206.8712   1   7   0.0099   0.0122   0.0171  -0.0083   0.0038   0.0076   0.00    0.0    0.00000    0.00000    0.00000   0.00000  0.00000  0.00000  0.00000  0.00000  0.00000
2284 354149.100  -2169653.8640   4385187.7285   4078206.8262   1   6   0.0211   0.0210   0.0188  -0.0196  -0.0107   0.0142   0.10    0.0    0.00000    0.00000    0.00000   0.00000  0.00000  0.00000  0.00000  0.00000  0.00000
2284 354149.200  -2169654.0026   4385187.6113   4078206.8810   1   6   0.0211   0.0210   0.0188  -0.0197  -0.0107   0.0142   0.20    0.0    0.00000    0.00000    0.00000   0.00000  0.00000  0.00000  0.00000  0.00000  0.00000
2284 354149.300  -2169654.1757   4385187.5456   4078206.8449   1   6   0.0212   0.0210   0.0188  -0.0197  -0.0108   0.0142   0.30    0.0    0.00000    0.00000    0.00000   0.00000  0.00000  0.00000  0.00000  0.00000  0.00000
2284 354149.400  -2169654.3733   4385187.4390   4078206.9192   1   6   0.0212   0.0210   0.0188  -0.0197  -0.0108   0.0143   0.40    0.0    0.00000    0.00000    0.00000   0.00000  0.00000  0.00000  0.00000  0.00000  0.00000
2284 354149.500  -2169654.5882   4385187.2960   4078206.9185   1   6   0.0213   0.0211   0.0189  -0.0198  -0.0109   0.0143   0.50    0.0    0.00000    0.00000    0.00000   0.00000  0.00000  0.00000  0.00000  0.00000  0.00000
2284 354149.600  -2169654.8751   4385187.1813   4078206.9128   1   6   0.0212   0.0210   0.0188  -0.0197  -0.0108   0.0142  -0.40    0.0    0.00000    0.00000    0.00000   0.00000  0.00000  0.00000  0.00000  0.00000  0.00000
2284 354149.700  -2169655.1396   4385187.0427   4078206.8751   1   6   0.0212   0.0210   0.0188  -0.0197  -0.0108   0.0142  -0.30    0.0    0.00000    0.00000    0.00000   0.00000  0.00000  0.00000  0.00000  0.00000  0.00000
2284 354149.800  -2169655.3649   4385186.8802   4078206.9059   1   6   0.0211   0.0210   0.0188  -0.0197  -0.0107   0.0142  -0.20    0.0    0.00000    0.00000    0.00000   0.00000  0.00000  0.00000  0.00000  0.00000  0.00000
2284 354149.900  -2169655.6087   4385186.7507   4078206.9242   1   6   0.0211   0.0209   0.0187  -0.0197  -0.0107   0.0141  -0.10    0.0    0.00000    0.00000    0.00000   0.00000  0.00000  0.00000  0.00000  0.00000  0.00000
2284 354150.000  -2169655.8738   4385186.6651   4078206.9109   1   6   0.0211   0.0209   0.0187  -0.0196  -0.0107   0.0142   0.00    0.0    0.00000    0.00000    0.00000   0.00000  0.00000  0.00000  0.00000  0.00000  0.00000
2284 354150.100  -2169656.0749   4385186.5235   4078206.9424   1   6   0.0211   0.0209   0.0187  -0.0197  -0.0107   0.0141   0.10    0.0    0.00000    0.00000    0.00000   0.00000  0.00000  0.00000  0.00000  0.00000  0.00000
2284 354150.200  -2169656.2937   4385186.4207   4078206.9330   1   6   0.0211   0.0210   0.0188  -0.0197  -0.0107   0.0142   0.20    0.0    0.00000    0.00000    0.00000   0.00000  0.00000  0.00000  0.00000  0.00000  0.00000
2284 354150.300  -2169656.5151   4385186.3365   4078206.8868   1   6   0.0212   0.0210   0.0188  -0.0197  -0.0108   0.0142   0.30    0.0    0.00000    0.00000    0.00000   0.00000  0.00000  0.00000  0.00000  0.00000  0.00000
2284 354150.400  -2169656.6984   4385186.2097   4078206.8987   1   6   0.0212   0.0210   0.0188  -0.0197  -0.0108   0.0142   0.40    0.0    0.00000    0.00000    0.00000   0.00000  0.00000  0.00000  0.00000  0.00000  0.00000
2284 354150.500  -2169656.8924   4385186.1187   4078206.9062   1   6   0.0213   0.0211   0.0189  -0.0198  -0.0108   0.0143   0.50    0.0    0.00000    0.00000    0.00000   0.00000  0.00000  0.00000  0.00000  0.00000  0.00000
2284 354150.600  -2169657.0705   4385186.0450   4078206.9326   1   6   0.0212   0.0210   0.0188  -0.0197  -0.0108   0.0142  -0.40    0.0    0.00000    0.00000    0.00000   0.00000  0.00000  0.00000  0.00000  0.00000  0.00000
2284 354150.700  -2169657.2583   4385185.9589   4078206.9250   1   6   0.0212   0.0210   0.0188  -0.0197  -0.0107   0.0142  -0.30    0.0    0.00000    0.00000    0.00000   0.00000  0.00000  0.00000  0.00000  0.00000  0.00000
2284 354150.800  -2169657.4164   4385185.8433   4078206.9227   1   6   0.0211   0.0210   0.0188  -0.0197  -0.0108   0.0142  -0.20    0.0    0.00000    0.00000    0.00000   0.00000  0.00000  0.00000  0.00000  0.00000  0.00000
2284 354150.900  -2169657.6052   4385185.7762   4078206.8901   1   6   0.0211   0.0209   0.0187  -0.0196  -0.0107   0.0142  -0.10    0.0    0.00000    0.00000    0.00000   0.00000  0.00000  0.00000  0.00000  0.00000  0.00000
2284 354151.000  -2169657.7740   4385185.7057   4078206.8745   1   6   0.0211   0.0209   0.0187  -0.0196  -0.0107   0.0142   0.00    0.0    0.00000    0.00000    0.00000   0.00000  0.00000  0.00000  0.00000  0.00000  0.00000
2284 354151.100  -2169657.9003   4385185.6182   4078206.8976   1   6   0.0211   0.0209   0.0187  -0.0196  -0.0107   0.0142   0.10    0.0    0.00000    0.00000    0.00000   0.00000  0.00000  0.00000  0.00000  0.00000  0.00000
2284 354151.200  -2169658.0191   4385185.5551   4078206.9060   1   6   0.0211   0.0210   0.0188  -0.0197  -0.0107   0.0142   0.20    0.0    0.00000    0.00000    0.00000   0.00000  0.00000  0.00000  0.00000  0.00000  0.00000
2284 354151.300  -2169658.1510   4385185.5126   4078206.8857   1   6   0.0212   0.0210   0.0188  -0.0197  -0.0108   0.0142   0.30    0.0    0.00000    0.00000    0.00000   0.00000  0.00000  0.00000  0.00000  0.00000  0.00000
2284 354151.400  -2169658.2612   4385185.4388   4078206.9135   1   6   0.0212   0.0210   0.0188  -0.0197  -0.0108   0.0142   0.40    0.0    0.00000    0.00000    0.00000   0.00000  0.00000  0.00000  0.00000  0.00000  0.00000
2284 354151.500  -2169658.4040   4385185.3805   4078206.9004   1   6   0.0213   0.0211   0.0189  -0.0198  -0.0108   0.0143   0.50    0.0    0.00000    0.00000    0.00000   0.00000  0.00000  0.00000  0.00000  0.00000  0.00000
2284 354151.600  -2169658.5772   4385185.3327   4078206.8850   1   6   0.0212   0.0210   0.0188  -0.0197  -0.0108   0.0142  -0.40    0.0    0.00000    0.00000    0.00000   0.00000  0.00000  0.00000  0.00000  0.00000  0.00000
2284 354151.700  -2169658.7125   4385185.2609   4078206.9137   1   6   0.0212   0.0210   0.0188  -0.0197  -0.0108   0.0142  -0.30    0.0    0.00000    0.00000    0.00000   0.00000  0.00000  0.00000  0.00000  0.00000  0.00000
2284 354151.800  -2169658.8074   4385185.1649   4078206.9146   1   6   0.0211   0.0210   0.0188  -0.0196  -0.0107   0.0142  -0.20    0.0    0.00000    0.00000    0.00000   0.00000  0.00000  0.00000  0.00000  0.00000  0.00000
2284 354151.900  -2169658.9726   4385185.1415   4078206.8665   1   6   0.0211   0.0209   0.0187  -0.0196  -0.0107   0.0142  -0.10    0.0    0.00000    0.00000    0.00000   0.00000  0.00000  0.00000  0.00000  0.00000  0.00000
2284 354152.000  -2169659.0520   4385185.0429   4078206.8951   1   6   0.0211   0.0209   0.0187  -0.0196  -0.0107   0.0142   0.00    0.0    0.00000    0.00000    0.00000   0.00000  0.00000  0.00000  0.00000  0.00000  0.00000
2284 354152.100  -2169659.1972   4385184.9689   4078206.8976   1   6   0.0211   0.0209   0.0187  -0.0196  -0.0107   0.0142   0.10    0.0    0.00000    0.00000    0.00000   0.00000  0.00000  0.00000  0.00000  0.00000  0.00000
2284 354152.200  -2169659.3485   4385184.9110   4078206.9024   1   6   0.0211   0.0210   0.0188  -0.0197  -0.0107   0.0141   0.20    0.0    0.00000    0.00000    0.00000   0.00000  0.00000  0.00000  0.00000  0.00000  0.00000
2284 354152.300  -2169659.5003   4385184.8519   4078206.8630   1   6   0.0212   0.0210   0.0188  -0.0197  -0.0107   0.0142   0.30    0.0    0.00000    0.00000    0.00000   0.00000  0.00000  0.00000  0.00000  0.00000  0.00000
2284 354152.400  -2169659.6175   4385184.7681   4078206.8884   1   6   0.0212   0.0210   0.0188  -0.0197  -0.0108   0.0142   0.40    0.0    0.00000    0.00000    0.00000   0.00000  0.00000  0.00000  0.00000  0.00000  0.00000
2284 354152.500  -2169659.7520   4385184.6902   4078206.8830   1   6   0.0213   0.0211   0.0189  -0.0198  -0.0108   0.0143   0.50    0.0    0.00000    0.00000    0.00000   0.00000  0.00000  0.00000  0.00000  0.00000  0.00000
2284 354152.600  -2169659.9268   4385184.6454   4078206.8695   1   6   0.0212   0.0210   0.0188  -0.0197  -0.0108   0.0142  -0.40    0.0    0.00000    0.00000    0.00000   0.00000  0.00000  0.00000  0.00000  0.00000  0.00000
2284 354152.700  -2169660.0791   4385184.5697   4078206.8691   1   6   0.0212   0.0210   0.0188  -0.0197  -0.0107   0.0142  -0.30    0.0    0.00000    0.00000    0.00000   0.00000  0.00000  0.00000  0.00000  0.00000  0.00000
2284 354152.800  -2169660.2030   4385184.4838   4078206.8870   1   6   0.0211   0.0209   0.0188  -0.0197  -0.0107   0.0142  -0.20    0.0    0.00000    0.00000    0.00000   0.00000  0.00000  0.00000  0.00000  0.00000  0.00000
2284 354152.900  -2169660.3460   4385184.4166   4078206.8868   1   6   0.0211   0.0209   0.0187  -0.0196  -0.0107   0.0141  -0.10    0.0    0.00000    0.00000    0.00000   0.00000  0.00000  0.00000  0.00000  0.00000  0.00000
2284 354153.000  -2169660.4897   4385184.3359   4078206.8864   1   6   0.0211   0.0209   0.0187  -0.0196  -0.0107   0.0141   0.00    0.0    0.00000    0.00000    0.00000   0.00000  0.00000  0.00000  0.00000  0.00000  0.00000
2284 354153.100  -2169660.6379   4385184.2803   4078206.8874   1   6   0.0211   0.0209   0.0187  -0.0196  -0.0107   0.0142   0.10    0.0    0.00000    0.00000    0.00000   0.00000  0.00000  0.00000  0.00000  0.00000  0.00000
2284 354153.200  -2169660.7475   4385184.2046   4078206.8901   1   6   0.0211   0.0209   0.0187  -0.0197  -0.0107   0.0141   0.20    0.0    0.00000    0.00000    0.00000   0.00000  0.00000  0.00000  0.00000  0.00000  0.00000
2284 354153.300  -2169660.8809   4385184.1582   4078206.8838   1   6   0.0212   0.0210   0.0188  -0.0197  -0.0107   0.0142   0.30    0.0    0.00000    0.00000    0.00000   0.00000  0.00000  0.00000  0.00000  0.00000  0.00000
2284 354153.400  -2169660.9856   4385184.1046   4078206.8666   1   6   0.0212   0.0210   0.0188  -0.0197  -0.0108   0.0142   0.40    0.0    0.00000    0.00000    0.00000   0.00000  0.00000  0.00000  0.00000  0.00000  0.00000
2284 354153.500  -2169661.0807   4385184.0515   4078206.8775   1   6   0.0213   0.0211   0.0188  -0.0198  -0.0108   0.0143   0.50    0.0    0.00000    0.00000    0.00000   0.00000  0.00000  0.00000  0.00000  0.00000  0.00000
2284 354153.600  -2169661.2014   4385184.0128   4078206.8878   1   6   0.0212   0.0210   0.0188  -0.0197  -0.0108   0.0142  -0.40    0.0    0.00000    0.00000    0.00000   0.00000  0.00000  0.00000  0.00000  0.00000  0.00000
2284 354153.700  -2169661.3400   4385183.9372   4078206.9002   1   6   0.0211   0.0210   0.0188  -0.0197  -0.0107   0.0142  -0.30    0.0    0.00000    0.00000    0.00000   0.00000  0.00000  0.00000  0.00000  0.00000  0.00000
2284 354153.800  -2169661.4699   4385183.8563   4078206.9009   1   6   0.0211   0.0209   0.0188  -0.0196  -0.0107   0.0142  -0.20    0.0    0.00000    0.00000    0.00000   0.00000  0.00000  0.00000  0.00000  0.00000  0.00000
2284 354153.900  -2169661.6240   4385183.7924   4078206.8830   1   6   0.0211   0.0209   0.0187  -0.0196  -0.0107   0.0142  -0.10    0.0    0.00000    0.00000    0.00000   0.00000  0.00000  0.00000  0.00000  0.00000  0.00000
2284 354154.000  -2169661.7527   4385183.7243   4078206.9097   1   6   0.0211   0.0209   0.0187  -0.0196  -0.0107   0.0141   0.00    0.0    0.00000    0.00000    0.00000   0.00000  0.00000  0.00000  0.00000  0.00000  0.00000
2284 354154.100  -2169661.8712   4385183.6505   4078206.9158   1   6   0.0211   0.0209   0.0187  -0.0196  -0.0107   0.0141   0.10    0.0    0.00000    0.00000    0.00000   0.00000  0.00000  0.00000  0.00000  0.00000  0.00000
2284 354154.200  -2169661.9801   4385183.5848   4078206.9145   1   6   0.0211   0.0209   0.0188  -0.0196  -0.0107   0.0142   0.20    0.0    0.00000    0.00000    0.00000   0.00000  0.00000  0.00000  0.00000  0.00000  0.00000
2284 354154.300  -2169662.0668   4385183.5356   4078206.9097   1   6   0.0212   0.0210   0.0188  -0.0197  -0.0107   0.0142   0.30    0.0    0.00000    0.00000    0.00000   0.00000  0.00000  0.00000  0.00000  0.00000  0.00000
2284 354154.400  -2169662.1681   4385183.5056   4078206.9023   1   6   0.0212   0.0210   0.0188  -0.0197  -0.0108   0.0142   0.40    0.0    0.00000    0.00000    0.00000   0.00000  0.00000  0.00000  0.00000  0.00000  0.00000
2284 354154.500  -2169662.2485   4385183.4545   4078206.9146   1   6   0.0213   0.0210   0.0188  -0.0198  -0.0108   0.0143   0.50    0.0    0.00000    0.00000    0.00000   0.00000  0.00000  0.00000  0.00000  0.00000  0.00000
2284 354154.600  -2169662.3403   4385183.3975   4078206.9116   1   6   0.0212   0.0210   0.0188  -0.0197  -0.0108   0.0143  -0.40    0.0    0.00000    0.00000    0.00000   0.00000  0.00000  0.00000  0.00000  0.00000  0.00000
2284 354154.700  -2169662.4327   4385183.3366   4078206.9343   1   6   0.0212   0.0210   0.0188  -0.0197  -0.0108   0.0142  -0.30    0.0    0.00000    0.00000    0.00000   0.00000  0.00000  0.00000  0.00000  0.00000  0.00000
2284 354154.800  -2169662.5304   4385183.2809   4078206.9437   1   6   0.0211   0.0209   0.0188  -0.0196  -0.0107   0.0142  -0.20    0.0    0.00000    0.00000    0.00000   0.00000  0.00000  0.00000  0.00000  0.00000  0.00000
2284 354154.900  -2169662.6354   4385183.2415   4078206.9334   1   6   0.0211   0.0209   0.0187  -0.0196  -0.0107   0.0141  -0.10    0.0    0.00000    0.00000    0.00000   0.00000  0.00000  0.00000  0.00000  0.00000  0.00000
2284 354155.000  -2169662.7546   4385183.1946   4078206.9256   1   6   0.0211   0.0209   0.0187  -0.0196  -0.0107   0.0142   0.00    0.0    0.00000    0.00000    0.00000   0.00000  0.00000  0.00000  0.00000  0.00000  0.00000
2284 354155.100  -2169662.8192   4385183.0997   4078206.9666   1   6   0.0211   0.0209   0.0187  -0.0196  -0.0107   0.0142   0.10    0.0    0.00000    0.00000    0.00000   0.00000  0.00000  0.00000  0.00000  0.00000  0.00000
2284 354155.200  -2169662.9515   4385183.0584   4078206.9513   1   6   0.0211   0.0209   0.0188  -0.0196  -0.0107   0.0142   0.20    0.0    0.00000    0.00000    0.00000   0.00000  0.00000  0.00000  0.00000  0.00000  0.00000
2284 354155.300  -2169663.0771   4385183.0034   4078206.9252   1   6   0.0212   0.0210   0.0188  -0.0197  -0.0107   0.0142   0.30    0.0    0.00000    0.00000    0.00000   0.00000  0.00000  0.00000  0.00000  0.00000  0.00000
2284 354155.400  -2169663.1612   4385182.9417   4078206.9641   1   6   0.0212   0.0210   0.0188  -0.0197  -0.0108   0.0142   0.40    0.0    0.00000    0.00000    0.00000   0.00000  0.00000  0.00000  0.00000  0.00000  0.00000
2284 354155.500  -2169663.2706   4385182.8794   4078206.9672   1   6   0.0213   0.0210   0.0188  -0.0198  -0.0108   0.0143   0.50    0.0    0.00000    0.00000    0.00000   0.00000  0.00000  0.00000  0.00000  0.00000  0.00000
2284 354155.600  -2169663.3641   4385182.8101   4078206.9791   1   6   0.0212   0.0210   0.0188  -0.0197  -0.0108   0.0142  -0.40    0.0    0.00000    0.00000    0.00000   0.00000  0.00000  0.00000  0.00000  0.00000  0.00000
2284 354155.700  -2169663.5064   4385182.7693   4078206.9863   1   6   0.0211   0.0210   0.0188  -0.0197  -0.0107   0.0142  -0.30    0.0    0.00000    0.00000    0.00000   0.00000  0.00000  0.00000  0.00000  0.00000  0.00000
2284 354155.800  -2169663.6466   4385182.7000   4078206.9935   1   6   0.0211   0.0209   0.0187  -0.0196  -0.0107   0.0142  -0.20    0.0    0.00000    0.00000    0.00000   0.00000  0.00000  0.00000  0.00000  0.00000  0.00000
2284 354155.900  -2169663.7763   4385182.6607   4078207.0037   1   6   0.0211   0.0209   0.0187  -0.0196  -0.0107   0.0142  -0.10    0.0    0.00000    0.00000    0.00000   0.00000  0.00000  0.00000  0.00000  0.00000  0.00000
2284 354156.000  -2169663.8618   4385182.6080   4078207.0170   1   6   0.0211   0.0209   0.0187  -0.0196  -0.0107   0.0141   0.00    0.0    0.00000    0.00000    0.00000   0.00000  0.00000  0.00000  0.00000  0.00000  0.00000
2284 354156.100  -2169663.9491   4385182.5456   4078207.0109   1   6   0.0211   0.0209   0.0187  -0.0196  -0.0107   0.0142   0.10    0.0    0.00000    0.00000    0.00000   0.00000  0.00000  0.00000  0.00000  0.00000  0.00000
2284 354156.200  -2169664.0598   4385182.5037   4078206.9959   1   6   0.0211   0.0209   0.0188  -0.0196  -0.0107   0.0142   0.20    0.0    0.00000    0.00000    0.00000   0.00000  0.00000  0.00000  0.00000  0.00000  0.00000
2284 354156.300  -2169664.1662   4385182.4644   4078206.9906   1   6   0.0211   0.0210   0.0188  -0.0196  -0.0107   0.0142   0.30    0.0    0.00000    0.00000    0.00000   0.00000  0.00000  0.00000  0.00000  0.00000  0.00000
2284 354156.400  -2169664.2708   4385182.4171   4078207.0058   1   6   0.0212   0.0210   0.0188  -0.0197  -0.0108   0.0142   0.40    0.0    0.00000    0.00000    0.00000   0.00000  0.00000  0.00000  0.00000  0.00000  0.00000
2284 354156.500  -2169664.3576   4385182.3292   4078207.0181   1   6   0.0213   0.0210   0.0188  -0.0198  -0.0108   0.0142   0.50    0.0    0.00000    0.00000    0.00000   0.00000  0.00000  0.00000  0.00000  0.00000  0.00000
2284 354156.600  -2169664.4301   4385182.2569   4078207.0403   1   6   0.0212   0.0210   0.0188  -0.0197  -0.0107   0.0142  -0.40    0.0    0.00000    0.00000    0.00000   0.00000  0.00000  0.00000  0.00000  0.00000  0.00000
2284 354156.700  -2169664.5373   4385182.2244   4078207.0393   1   6   0.0212   0.0209   0.0188  -0.0197  -0.0107   0.0142  -0.30    0.0    0.00000    0.00000    0.00000   0.00000  0.00000  0.00000  0.00000  0.00000  0.00000
2284 354156.800  -2169664.6486   4385182.1663   4078207.0441   1   6   0.0211   0.0209   0.0187  -0.0196  -0.0107   0.0142  -0.20    0.0    0.00000    0.00000    0.00000   0.00000  0.00000  0.00000  0.00000  0.00000  0.00000
2284 354156.900  -2169664.7976   4385182.1074   4078207.0403   1   6   0.0211   0.0209   0.0187  -0.0196  -0.0107   0.0141  -0.10    0.0    0.00000    0.00000    0.00000   0.00000  0.00000  0.00000  0.00000  0.00000  0.00000
2284 354157.000  -2169664.9327   4385182.0204   4078207.0559   1   6   0.0211   0.0209   0.0187  -0.0196  -0.0107   0.0141   0.00    0.0    0.00000    0.00000    0.00000   0.00000  0.00000  0.00000  0.00000  0.00000  0.00000
2284 354157.100  -2169665.0590   4385181.9131   4078207.0571   1   6   0.0211   0.0209   0.0187  -0.0196  -0.0107   0.0141   0.10    0.0    0.00000    0.00000    0.00000   0.00000  0.00000  0.00000  0.00000  0.00000  0.00000
2284 354157.200  -2169665.2097   4385181.8680   4078207.0682   1   6   0.0211   0.0209   0.0188  -0.0196  -0.0107   0.0142   0.20    0.0    0.00000    0.00000    0.00000   0.00000  0.00000  0.00000  0.00000  0.00000  0.00000
2284 354157.300  -2169665.3397   4385181.8149   4078207.0700   1   6   0.0211   0.0209   0.0188  -0.0197  -0.0107   0.0142   0.30    0.0    0.00000    0.00000    0.00000   0.00000  0.00000  0.00000  0.00000  0.00000  0.00000
2284 354157.400  -2169665.4539   4385181.7453   4078207.0728   1   6   0.0212   0.0210   0.0188  -0.0197  -0.0108   0.0142   0.40    0.0    0.00000    0.00000    0.00000   0.00000  0.00000  0.00000  0.00000  0.00000  0.00000
2284 354157.500  -2169665.5673   4385181.6779   4078207.0910   1   6   0.0212   0.0210   0.0189  -0.0197  -0.0108   0.0143   0.50    0.0    0.00000    0.00000    0.00000   0.00000  0.00000  0.00000  0.00000  0.00000  0.00000
2284 354157.600  -2169665.6787   4385181.6163   4078207.1100   1   6   0.0212   0.0210   0.0188  -0.0197  -0.0108   0.0142  -0.40    0.0    0.00000    0.00000    0.00000   0.00000  0.00000  0.00000  0.00000  0.00000  0.00000
2284 354157.700  -2169665.8079   4385181.5454   4078207.1207   1   6   0.0212   0.0209   0.0188  -0.0196  -0.0107   0.0142  -0.30    0.0    0.00000    0.00000    0.00000   0.00000  0.00000  0.00000  0.00000  0.00000  0.00000
2284 354157.800  -2169665.9641   4385181.4523   4078207.1098   1   6   0.0211   0.0209   0.0187  -0.0196  -0.0107   0.0142  -0.20    0.0    0.00000    0.00000    0.00000   0.00000  0.00000  0.00000  0.00000  0.00000  0.00000
2284 354157.900  -2169666.1258   4385181.3816   4078207.1178   1   6   0.0211   0.0209   0.0187  -0.0196  -0.0107   0.0142  -0.10    0.0    0.00000    0.00000    0.00000   0.00000  0.00000  0.00000  0.00000  0.00000  0.00000
2284 354158.000  -2169666.2728   4385181.2882   4078207.1418   1   6   0.0211   0.0209   0.0187  -0.0196  -0.0107   0.0141   0.00    0.0    0.00000    0.00000    0.00000   0.00000  0.00000  0.00000  0.00000  0.00000  0.00000
2284 354158.100  -2169666.4382   4385181.1978   4078207.1352   1   6   0.0211   0.0209   0.0187  -0.0196  -0.0107   0.0141   0.10    0.0    0.00000    0.00000    0.00000   0.00000  0.00000  0.00000  0.00000  0.00000  0.00000
2284 354158.200  -2169666.5851   4385181.1229   4078207.1482   1   6   0.0211   0.0209   0.0188  -0.0196  -0.0107   0.0142   0.20    0.0    0.00000    0.00000    0.00000   0.00000  0.00000  0.00000  0.00000  0.00000  0.00000
2284 354158.300  -2169666.7225   4385181.0423   4078207.1343   1   6   0.0212   0.0209   0.0188  -0.0196  -0.0107   0.0142   0.30    0.0    0.00000    0.00000    0.00000   0.00000  0.00000  0.00000  0.00000  0.00000  0.00000
2284 354158.400  -2169666.8176   4385180.9956   4078207.1674   1   6   0.0212   0.0210   0.0188  -0.0197  -0.0107   0.0142   0.40    0.0    0.00000    0.00000    0.00000   0.00000  0.00000  0.00000  0.00000  0.00000  0.00000
