% obs start : 2023/10/19 02:22:12.0
% obs end   : 2023/10/19 02:27:13.3
%
%  GPST              x-ecef(m)      y-ecef(m)      z-ecef(m)   Q  ns   sdx(m)   sdy(m)   sdz(m)  sdxy(m)  sdyz(m)  sdzx(m) age(s)  ratio    vx(m/s)    vy(m/s)    vz(m/s)      sdvx     sdvy     sdvz    sdvxy    sdvyz    sdvzx
2284 354132.000  -2169637.2711   4385199.9818   4078202.3108   2   6   1.4117   2.5496   1.4538  -1.6047   1.8465  -1.0948   0.00    0.0    0.00000    0.00000    0.00000   0.00000  0.00000  0.00000  0.00000  0.00000  0.00000
2284 354132.100  -2169637.3414   4385199.9696   4078202.4689   2   6   1.0020   1.8077   1.0307  -1.1383   1.3091  -0.7765   0.10    0.0    0.00000    0.00000    0.00000   0.00000  0.00000  0.00000  0.00000  0.00000  0.00000
2284 354132.200  -2169637.4134   4385199.9953   4078202.6059   2   6   0.8192   1.4773   0.8423  -0.9304   1.0698  -0.6346   0.20    0.0    0.00000    0.00000    0.00000   0.00000  0.00000  0.00000  0.00000  0.00000  0.00000
2284 354132.300  -2169637.4143   4385199.8701   4078202.6725   2   6   0.7099   1.2800   0.7298  -0.8062   0.9269  -0.5499   0.30    0.0    0.00000    0.00000    0.00000   0.00000  0.00000  0.00000  0.00000  0.00000  0.00000
2284 354132.400  -2169637.4567   4385199.7790   4078202.7791   2   5   0.6867   1.1615   0.6593  -0.7556   0.8399  -0.5156   0.40    0.0    0.00000    0.00000    0.00000   0.00000  0.00000  0.00000  0.00000  0.00000  0.00000
2284 354132.500  -2169637.5676   4385199.7501   4078202.9211   2   6   0.6176   1.0574   0.6008  -0.6836   0.7648  -0.4664   0.50    1.0    0.00000    0.00000    0.00000   0.00000  0.00000  0.00000  0.00000  0.00000  0.00000
2284 354132.600  -2169637.6034   4385199.5993   4078202.9991   2   6   0.5664   0.9774   0.5556  -0.6293   0.7071  -0.4293  -0.40    1.1    0.00000    0.00000    0.00000   0.00000  0.00000  0.00000  0.00000  0.00000  0.00000
2284 354132.700  -2169637.7068   4385199.4788   4078203.1084   2   6   0.5262   0.9132   0.5193  -0.5862   0.6607  -0.3999  -0.30    1.1    0.00000    0.00000    0.00000   0.00000  0.00000  0.00000  0.00000  0.00000  0.00000
2284 354132.800  -2169637.8540   4385199.4208   4078203.2755   2   6   0.4935   0.8602   0.4893  -0.5510   0.6224  -0.3759  -0.20    1.1    0.00000    0.00000    0.00000   0.00000  0.00000  0.00000  0.00000  0.00000  0.00000
2284 354132.900  -2169637.9177   4385199.2781   4078203.4011   2   5   0.4865   0.8220   0.4666  -0.5351   0.5944  -0.3651  -0.10    1.2    0.00000    0.00000    0.00000   0.00000  0.00000  0.00000  0.00000  0.00000  0.00000
2284 354133.000  -2169637.9374   4385199.0621   4078203.4600   2   5   0.4793   0.7889   0.4469  -0.5207   0.5701  -0.3553   0.00    1.2    0.00000    0.00000    0.00000   0.00000  0.00000  0.00000  0.00000  0.00000  0.00000
2284 354133.100  -2169638.0506   4385198.9584   4078203.5852   2   5   0.4727   0.7600   0.4297  -0.5080   0.5489  -0.3468   0.10    1.3    0.00000    0.00000    0.00000   0.00000  0.00000  0.00000  0.00000  0.00000  0.00000
2284 354133.200  -2169638.1139   4385198.8738   4078203.7112   2   5   0.4666   0.7346   0.4146  -0.4967   0.5302  -0.3391   0.20    1.4    0.00000    0.00000    0.00000   0.00000  0.00000  0.00000  0.00000  0.00000  0.00000
2284 354133.300  -2169638.1932   4385198.7786   4078203.8062   2   5   0.4609   0.7118   0.4011  -0.4866   0.5135  -0.3322   0.30    1.5    0.00000    0.00000    0.00000   0.00000  0.00000  0.00000  0.00000  0.00000  0.00000
2284 354133.400  -2169638.3057   4385198.6927   4078203.9066   2   5   0.4556   0.6914   0.3889  -0.4774   0.4985  -0.3260   0.40    1.5    0.00000    0.00000    0.00000   0.00000  0.00000  0.00000  0.00000  0.00000  0.00000
2284 354133.500  -2169638.3527   4385198.5740   4078203.9976   2   5   0.4505   0.6730   0.3780  -0.4689   0.4850  -0.3202   0.50    1.3    0.00000    0.00000    0.00000   0.00000  0.00000  0.00000  0.00000  0.00000  0.00000
2284 354133.600  -2169638.3214   4385198.4254   4078204.0454   2   5   0.4457   0.6561   0.3680  -0.4611   0.4726  -0.3149  -0.40    1.4    0.00000    0.00000    0.00000   0.00000  0.00000  0.00000  0.00000  0.00000  0.00000
2284 354133.700  -2169638.2957   4385198.2830   4078204.0816   2   5   0.4412   0.6406   0.3588  -0.4539   0.4613  -0.3100  -0.30    1.5    0.00000    0.00000    0.00000   0.00000  0.00000  0.00000  0.00000  0.00000  0.00000
2284 354133.800  -2169638.3500   4385198.1532   4078204.1341   2   5   0.4368   0.6264   0.3504  -0.4471   0.4508  -0.3054  -0.20    1.6    0.00000    0.00000    0.00000   0.00000  0.00000  0.00000  0.00000  0.00000  0.00000
2284 354133.900  -2169638.3675   4385198.0301   4078204.1962   2   5   0.4326   0.6132   0.3425  -0.4408   0.4411  -0.3011  -0.10    1.6    0.00000    0.00000    0.00000   0.00000  0.00000  0.00000  0.00000  0.00000  0.00000
2284 354134.000  -2169638.4486   4385197.8892   4078204.2856   2   5   0.4286   0.6009   0.3353  -0.4348   0.4322  -0.2971   0.00    1.5    0.00000    0.00000    0.00000   0.00000  0.00000  0.00000  0.00000  0.00000  0.00000
2284 354134.100  -2169638.5885   4385197.7937   4078204.4119   2   5   0.4247   0.5895   0.3285  -0.4292   0.4238  -0.2933   0.10    1.3    0.00000    0.00000    0.00000   0.00000  0.00000  0.00000  0.00000  0.00000  0.00000
2284 354134.200  -2169638.6057   4385197.5911   4078204.4607   2   5   0.4210   0.5788   0.3222  -0.4239   0.4159  -0.2897   0.20    1.1    0.00000    0.00000    0.00000   0.00000  0.00000  0.00000  0.00000  0.00000  0.00000
2284 354134.300  -2169638.5662   4385197.4461   4078204.5050   2   5   0.4173   0.5687   0.3163  -0.4189   0.4086  -0.2862   0.30    1.1    0.00000    0.00000    0.00000   0.00000  0.00000  0.00000  0.00000  0.00000  0.00000
2284 354134.400  -2169638.5175   4385197.1568   4078204.4058   2   6   0.4076   0.5320   0.2974  -0.3992   0.3820  -0.2719   0.40    1.1    0.00000    0.00000    0.00000   0.00000  0.00000  0.00000  0.00000  0.00000  0.00000
2284 354134.500  -2169638.4560   4385196.9343   4078204.3142   2   6   0.3995   0.5027   0.2822  -0.3833   0.3608  -0.2605   0.50    1.1    0.00000    0.00000    0.00000   0.00000  0.00000  0.00000  0.00000  0.00000  0.00000
2284 354134.600  -2169638.4088   4385196.7232   4078204.2194   2   6   0.3925   0.4783   0.2695  -0.3702   0.3432  -0.2511  -0.40    1.0    0.00000    0.00000    0.00000   0.00000  0.00000  0.00000  0.00000  0.00000  0.00000
2284 354134.700  -2169638.3496   4385196.4722   4078204.0911   2   7   0.3858   0.4558   0.2568  -0.3601   0.3263  -0.2444  -0.30    1.0    0.00000    0.00000    0.00000   0.00000  0.00000  0.00000  0.00000  0.00000  0.00000
2284 354134.800  -2169638.3120   4385196.2762   4078204.0046   2   8   0.3783   0.4358   0.2451  -0.3499   0.3110  -0.2371  -0.20    1.1    0.00000    0.00000    0.00000   0.00000  0.00000  0.00000  0.00000  0.00000  0.00000
2284 354134.900  -2169638.3187   4385196.0922   4078203.9606   2   8   0.3713   0.4186   0.2351  -0.3408   0.2980  -0.2306  -0.10    2.5    0.00000    0.00000    0.00000   0.00000  0.00000  0.00000  0.00000  0.00000  0.00000
2284 354135.000  -2169638.3674   4385195.9054   4078203.9542   2   8   0.3649   0.4036   0.2263  -0.3328   0.2867  -0.2250   0.00    2.3    0.00000    0.00000    0.00000   0.00000  0.00000  0.00000  0.00000  0.00000  0.00000
2284 354135.100  -2169638.4193   4385195.7116   4078203.9800   2   8   0.3589   0.3904   0.2187  -0.3254   0.2768  -0.2199   0.10    2.1    0.00000    0.00000    0.00000   0.00000  0.00000  0.00000  0.00000  0.00000  0.00000
2284 354135.200  -2169638.5141   4385195.5275   4078204.0228   2   8   0.3532   0.3787   0.2118  -0.3188   0.2680  -0.2152   0.20    1.9    0.00000    0.00000    0.00000   0.00000  0.00000  0.00000  0.00000  0.00000  0.00000
2284 354135.300  -2169638.6024   4385195.3325   4078204.0835   2   8   0.3479   0.3681   0.2057  -0.3126   0.2601  -0.2110   0.30    2.1    0.00000    0.00000    0.00000   0.00000  0.00000  0.00000  0.00000  0.00000  0.00000
2284 354135.400  -2169638.7466   4385195.1670   4078204.1580   2   7   0.3439   0.3593   0.2009  -0.3080   0.2538  -0.2082   0.40    2.0    0.00000    0.00000    0.00000   0.00000  0.00000  0.00000  0.00000  0.00000  0.00000
2284 354135.500  -2169638.8159   4385195.0024   4078204.1980   2   7   0.3400   0.3512   0.1965  -0.3035   0.2480  -0.2055   0.50    1.9    0.00000    0.00000    0.00000   0.00000  0.00000  0.00000  0.00000  0.00000  0.00000
2284 354135.600  -2169638.9446   4385194.9272   4078204.2421   2   7   0.3362   0.3437   0.1924  -0.2993   0.2426  -0.2030  -0.40    1.9    0.00000    0.00000    0.00000   0.00000  0.00000  0.00000  0.00000  0.00000  0.00000
2284 354135.700  -2169638.9189   4385194.8238   4078204.2433   2   7   0.3326   0.3368   0.1887  -0.2953   0.2377  -0.2006  -0.30    1.8    0.00000    0.00000    0.00000   0.00000  0.00000  0.00000  0.00000  0.00000  0.00000
2284 354135.800  -2169638.9096   4385194.7627   4078204.2585   2   7   0.3291   0.3304   0.1852  -0.2915   0.2332  -0.1984  -0.20    1.6    0.00000    0.00000    0.00000   0.00000  0.00000  0.00000  0.00000  0.00000  0.00000
2284 354135.900  -2169639.0598   4385194.7807   4078204.2905   2   6   0.3266   0.3246   0.1822  -0.2878   0.2292  -0.1958  -0.10    2.8    0.00000    0.00000    0.00000   0.00000  0.00000  0.00000  0.00000  0.00000  0.00000
2284 354136.000  -2169639.0532   4385194.7767   4078204.3051   2   6   0.3238   0.3191   0.1794  -0.2841   0.2254  -0.1933   0.00    2.9    0.00000    0.00000    0.00000   0.00000  0.00000  0.00000  0.00000  0.00000  0.00000
2284 354136.100  -2169639.0470   4385194.7390   4078204.3111   2   6   0.3212   0.3139   0.1768  -0.2806   0.2218  -0.1909   0.10    3.0    0.00000    0.00000    0.00000   0.00000  0.00000  0.00000  0.00000  0.00000  0.00000
2284 354136.200  -2169640.7187   4385196.1496   4078204.8612   1   6   0.0282   0.0197   0.0112  -0.0215   0.0140  -0.0147   0.20    3.0    0.00000    0.00000    0.00000   0.00000  0.00000  0.00000  0.00000  0.00000  0.00000
2284 354136.300  -2169639.1788   4385194.5688   4078204.3768   2   6   0.3162   0.3043   0.1718  -0.2742   0.2152  -0.1866   0.30    3.0    0.00000    0.00000    0.00000   0.00000  0.00000  0.00000  0.00000  0.00000  0.00000
2284 354136.400  -2169639.2697   4385194.4663   4078204.4124   2   6   0.3138   0.2999   0.1695  -0.2712   0.2121  -0.1845   0.40    2.9    0.00000    0.00000    0.00000   0.00000  0.00000  0.00000  0.00000  0.00000  0.00000
2284 354136.500  -2169639.3273   4385194.3513   4078204.4482   2   6   0.3115   0.2957   0.1673  -0.2683   0.2092  -0.1826   0.50    2.8    0.00000    0.00000    0.00000   0.00000  0.00000  0.00000  0.00000  0.00000  0.00000
2284 354136.600  -2169639.4044   4385194.2774   4078204.4979   2   6   0.3093   0.2917   0.1652  -0.2656   0.2064  -0.1807  -0.40    2.7    0.00000    0.00000    0.00000   0.00000  0.00000  0.00000  0.00000  0.00000  0.00000
2284 354136.700  -2169639.4311   4385194.2333   4078204.4963   2   6   0.3071   0.2878   0.1632  -0.2629   0.2038  -0.1790  -0.30    2.8    0.00000    0.00000    0.00000   0.00000  0.00000  0.00000  0.00000  0.00000  0.00000
2284 354136.800  -2169639.3846   4385194.2117   4078204.4946   2   6   0.3050   0.2841   0.1612  -0.2604   0.2012  -0.1772  -0.20    2.7    0.00000    0.00000    0.00000   0.00000  0.00000  0.00000  0.00000  0.00000  0.00000
2284 354136.900  -2169639.3316   4385194.1949   4078204.4891   2   6   0.3030   0.2806   0.1594  -0.2579   0.1988  -0.1756  -0.10    2.6    0.00000    0.00000    0.00000   0.00000  0.00000  0.00000  0.00000  0.00000  0.00000
2284 354137.000  -2169639.3025   4385194.1767   4078204.4851   2   6   0.3010   0.2773   0.1576  -0.2556   0.1964  -0.1740   0.00    2.6    0.00000    0.00000    0.00000   0.00000  0.00000  0.00000  0.00000  0.00000  0.00000
2284 354137.100  -2169639.2727   4385194.1508   4078204.4823   2   6   0.2991   0.2740   0.1558  -0.2533   0.1942  -0.1725   0.10    2.6    0.00000    0.00000    0.00000   0.00000  0.00000  0.00000  0.00000  0.00000  0.00000
2284 354137.200  -2169639.2542   4385194.1282   4078204.4828   2   6   0.2972   0.2709   0.1542  -0.2511   0.1920  -0.1710   0.20    2.5    0.00000    0.00000    0.00000   0.00000  0.00000  0.00000  0.00000  0.00000  0.00000
2284 354137.300  -2169639.2385   4385194.1153   4078204.4813   2   6   0.2953   0.2679   0.1526  -0.2490   0.1899  -0.1695   0.30    2.6    0.00000    0.00000    0.00000   0.00000  0.00000  0.00000  0.00000  0.00000  0.00000
2284 354137.400  -2169639.2259   4385194.0841   4078204.4744   2   6   0.2935   0.2650   0.1510  -0.2470   0.1879  -0.1682   0.40    2.5    0.00000    0.00000    0.00000   0.00000  0.00000  0.00000  0.00000  0.00000  0.00000
2284 354137.500  -2169639.2590   4385194.0185   4078204.4667   2   6   0.2918   0.2623   0.1495  -0.2450   0.1860  -0.1668   0.50    2.5    0.00000    0.00000    0.00000   0.00000  0.00000  0.00000  0.00000  0.00000  0.00000
2284 354137.600  -2169641.3499   4385195.6838   4078205.0133   1   6   0.0323   0.0219   0.0149  -0.0248   0.0170  -0.0192  -0.40    3.2    0.00000    0.00000    0.00000   0.00000  0.00000  0.00000  0.00000  0.00000  0.00000
2284 354137.700  -2169641.4520   4385195.6787   4078205.0269   1   6   0.0303   0.0208   0.0131  -0.0232   0.0156  -0.0171  -0.30    3.2    0.00000    0.00000    0.00000   0.00000  0.00000  0.00000  0.00000  0.00000  0.00000
2284 354137.800  -2169639.4542   4385193.8999   4078204.4747   2   6   0.2871   0.2547   0.1454  -0.2397   0.1805  -0.1630  -0.20    1.1    0.00000    0.00000    0.00000   0.00000  0.00000  0.00000  0.00000  0.00000  0.00000
2284 354137.900  -2169639.4348   4385193.8203   4078204.4671   2   6   0.2853   0.2521   0.1440  -0.2377   0.1788  -0.1618  -0.10    1.1    0.00000    0.00000    0.00000   0.00000  0.00000  0.00000  0.00000  0.00000  0.00000
2284 354138.000  -2169639.5383   4385193.7777   4078204.4750   2   6   0.2839   0.2499   0.1428  -0.2362   0.1772  -0.1607   0.00    1.1    0.00000    0.00000    0.00000   0.00000  0.00000  0.00000  0.00000  0.00000  0.00000
2284 354138.100  -2169639.7016   4385193.7283   4078204.4846   2   6   0.2824   0.2476   0.1415  -0.2345   0.1756  -0.1595   0.10    2.1    0.00000    0.00000    0.00000   0.00000  0.00000  0.00000  0.00000  0.00000  0.00000
2284 354138.200  -2169639.8491   4385193.6399   4078204.4548   2   6   0.2807   0.2453   0.1403  -0.2327   0.1740  -0.1584   0.20    2.0    0.00000    0.00000    0.00000   0.00000  0.00000  0.00000  0.00000  0.00000  0.00000
2284 354138.300  -2169640.0581   4385193.6218   4078204.4819   2   6   0.2791   0.2431   0.1391  -0.2311   0.1725  -0.1573   0.30    2.0    0.00000    0.00000    0.00000   0.00000  0.00000  0.00000  0.00000  0.00000  0.00000
2284 354138.400  -2169640.1204   4385193.5454   4078204.4826   2   5   0.2779   0.2413   0.1380  -0.2298   0.1711  -0.1564   0.40    2.0    0.00000    0.00000    0.00000   0.00000  0.00000  0.00000  0.00000  0.00000  0.00000
2284 354138.500  -2169640.1949   4385193.4520   4078204.4831   2   5   0.2766   0.2395   0.1368  -0.2285   0.1697  -0.1554   0.50    1.9    0.00000    0.00000    0.00000   0.00000  0.00000  0.00000  0.00000  0.00000  0.00000
2284 354138.600  -2169640.3052   4385193.3693   4078204.5231   2   5   0.2754   0.2377   0.1358  -0.2272   0.1684  -0.1544  -0.40    2.5    0.00000    0.00000    0.00000   0.00000  0.00000  0.00000  0.00000  0.00000  0.00000
2284 354138.700  -2169640.4253   4385193.2658   4078204.5355   2   5   0.2741   0.2359   0.1347  -0.2260   0.1671  -0.1535  -0.30    2.1    0.00000    0.00000    0.00000   0.00000  0.00000  0.00000  0.00000  0.00000  0.00000
2284 354138.800  -2169640.6159   4385193.2314   4078204.4962   2   5   0.2732   0.2343   0.1342  -0.2249   0.1660  -0.1530  -0.20    1.5    0.00000    0.00000    0.00000   0.00000  0.00000  0.00000  0.00000  0.00000  0.00000
2284 354138.900  -2169640.7112   4385193.1471   4078204.4947   2   5   0.2718   0.2326   0.1329  -0.2236   0.1646  -0.1519  -0.10    1.5    0.00000    0.00000    0.00000   0.00000  0.00000  0.00000  0.00000  0.00000  0.00000
2284 354139.000  -2169640.7253   4385193.0771   4078204.4822   2   5   0.2707   0.2310   0.1321  -0.2225   0.1635  -0.1511   0.00    1.5    0.00000    0.00000    0.00000   0.00000  0.00000  0.00000  0.00000  0.00000  0.00000
2284 354139.100  -2169640.8103   4385193.0485   4078204.4375   2   5   0.2699   0.2297   0.1314  -0.2216   0.1623  -0.1502   0.10    1.2    0.00000    0.00000    0.00000   0.00000  0.00000  0.00000  0.00000  0.00000  0.00000
2284 354139.200  -2169640.8853   4385192.9600   4078204.4395   2   5   0.2689   0.2283   0.1306  -0.2206   0.1612  -0.1494   0.20    1.2    0.00000    0.00000    0.00000   0.00000  0.00000  0.00000  0.00000  0.00000  0.00000
2284 354139.300  -2169641.0024   4385192.8953   4078204.4340   2   5   0.2677   0.2267   0.1296  -0.2195   0.1603  -0.1489   0.30    1.2    0.00000    0.00000    0.00000   0.00000  0.00000  0.00000  0.00000  0.00000  0.00000
2284 354139.400  -2169641.0601   4385192.8105   4078204.4087   2   5   0.2666   0.2253   0.1288  -0.2184   0.1592  -0.1482   0.40    1.4    0.00000    0.00000    0.00000   0.00000  0.00000  0.00000  0.00000  0.00000  0.00000
2284 354139.500  -2169641.0414   4385192.6978   4078204.4059   2   5   0.2656   0.2239   0.1281  -0.2174   0.1582  -0.1475   0.50    1.2    0.00000    0.00000    0.00000   0.00000  0.00000  0.00000  0.00000  0.00000  0.00000
2284 354139.600  -2169641.1503   4385192.6829   4078204.4908   2   4   0.2648   0.2228   0.1380  -0.2166   0.1557  -0.1468  -0.40    1.2    0.00000    0.00000    0.00000   0.00000  0.00000  0.00000  0.00000  0.00000  0.00000
2284 354139.700  -2169641.1743   4385192.6190   4078204.4890   2   4   0.2639   0.2215   0.1374  -0.2157   0.1547  -0.1462  -0.30    1.1    0.00000    0.00000    0.00000   0.00000  0.00000  0.00000  0.00000  0.00000  0.00000
2284 354139.800  -2169641.1761   4385192.5462   4078204.4745   2   4   0.2630   0.2203   0.1368  -0.2148   0.1538  -0.1455  -0.20    1.1    0.00000    0.00000    0.00000   0.00000  0.00000  0.00000  0.00000  0.00000  0.00000
2284 354139.900  -2169641.2215   4385192.5314   4078204.4937   2   4   0.2621   0.2191   0.1362  -0.2139   0.1528  -0.1449  -0.10    1.1    0.00000    0.00000    0.00000   0.00000  0.00000  0.00000  0.00000  0.00000  0.00000
2284 354140.000  -2169641.3175   4385192.5562   4078204.5161   2   4   0.2612   0.2179   0.1356  -0.2131   0.1519  -0.1443   0.00    1.1    0.00000    0.00000    0.00000   0.00000  0.00000  0.00000  0.00000  0.00000  0.00000
2284 354140.100  -2169641.3477   4385192.5345   4078204.4522   2   4   0.2603   0.2167   0.1351  -0.2122   0.1510  -0.1437   0.10    1.1    0.00000    0.00000    0.00000   0.00000  0.00000  0.00000  0.00000  0.00000  0.00000
2284 354140.200  -2169641.3385   4385192.4931   4078204.4340   2   4   0.2595   0.2155   0.1345  -0.2114   0.1501  -0.1431   0.20    1.1    0.00000    0.00000    0.00000   0.00000  0.00000  0.00000  0.00000  0.00000  0.00000
2284 354140.300  -2169641.2723   4385192.4051   4078204.4690   2   5   0.2581   0.2143   0.1340  -0.2103   0.1492  -0.1424   0.30    1.1    0.00000    0.00000    0.00000   0.00000  0.00000  0.00000  0.00000  0.00000  0.00000
2284 354140.400  -2169641.2481   4385192.3405   4078204.3906   2   5   0.2563   0.2129   0.1334  -0.2089   0.1485  -0.1420   0.40    1.1    0.00000    0.00000    0.00000   0.00000  0.00000  0.00000  0.00000  0.00000  0.00000
2284 354140.500  -2169641.3755   4385192.3435   4078204.3659   2   5   0.2548   0.2116   0.1329  -0.2078   0.1477  -0.1414   0.50    1.1    0.00000    0.00000    0.00000   0.00000  0.00000  0.00000  0.00000  0.00000  0.00000
2284 354140.600  -2169641.4640   4385192.2670   4078204.4169   2   5   0.2534   0.2104   0.1323  -0.2067   0.1468  -0.1408  -0.40    1.1    0.00000    0.00000    0.00000   0.00000  0.00000  0.00000  0.00000  0.00000  0.00000
2284 354140.700  -2169641.4646   4385192.1302   4078204.4865   2   5   0.2520   0.2093   0.1317  -0.2056   0.1460  -0.1401  -0.30    1.1    0.00000    0.00000    0.00000   0.00000  0.00000  0.00000  0.00000  0.00000  0.00000
2284 354140.800  -2169641.4472   4385192.0332   4078204.4089   2   5   0.2507   0.2081   0.1312  -0.2045   0.1452  -0.1395  -0.20    1.1    0.00000    0.00000    0.00000   0.00000  0.00000  0.00000  0.00000  0.00000  0.00000
2284 354140.900  -2169641.5211   4385191.9712   4078204.3939   2   5   0.2494   0.2070   0.1307  -0.2035   0.1444  -0.1388  -0.10    1.1    0.00000    0.00000    0.00000   0.00000  0.00000  0.00000  0.00000  0.00000  0.00000
2284 354141.000  -2169641.6032   4385191.9152   4078204.3259   2   5   0.2481   0.2059   0.1302  -0.2025   0.1436  -0.1382   0.00    1.1    0.00000    0.00000    0.00000   0.00000  0.00000  0.00000  0.00000  0.00000  0.00000
2284 354141.100  -2169641.6945   4385191.8105   4078204.3199   2   5   0.2469   0.2048   0.1298  -0.2016   0.1428  -0.1376   0.10    1.1    0.00000    0.00000    0.00000   0.00000  0.00000  0.00000  0.00000  0.00000  0.00000
2284 354141.200  -2169641.8220   4385191.7081   4078204.3481   2   5   0.2456   0.2037   0.1293  -0.2006   0.1420  -0.1369   0.20    1.0    0.00000    0.00000    0.00000   0.00000  0.00000  0.00000  0.00000  0.00000  0.00000
2284 354141.300  -2169641.9347   4385191.5992   4078204.3784   2   5   0.2444   0.2027   0.1289  -0.1996   0.1412  -0.1363   0.30    1.0    0.00000    0.00000    0.00000   0.00000  0.00000  0.00000  0.00000  0.00000  0.00000
2284 354141.400  -2169641.9834   4385191.4890   4078204.3941   2   5   0.2432   0.2016   0.1285  -0.1987   0.1404  -0.1357   0.40    1.0    0.00000    0.00000    0.00000   0.00000  0.00000  0.00000  0.00000  0.00000  0.00000
2284 354141.500  -2169642.0113   4385191.4676   4078204.3641   2   5   0.2421   0.2006   0.1281  -0.1978   0.1397  -0.1351   0.50    1.0    0.00000    0.00000    0.00000   0.00000  0.00000  0.00000  0.00000  0.00000  0.00000
2284 354141.600  -2169641.9899   4385191.4172   4078204.3059   2   5   0.2409   0.1996   0.1276  -0.1969   0.1390  -0.1345  -0.40    1.0    0.00000    0.00000    0.00000   0.00000  0.00000  0.00000  0.00000  0.00000  0.00000
2284 354141.700  -2169642.0342   4385191.3483   4078204.3248   2   5   0.2398   0.1986   0.1272  -0.1960   0.1382  -0.1340  -0.30    1.0    0.00000    0.00000    0.00000   0.00000  0.00000  0.00000  0.00000  0.00000  0.00000
2284 354141.800  -2169642.1209   4385191.2895   4078204.3072   2   5   0.2386   0.1976   0.1268  -0.1951   0.1375  -0.1334  -0.20    1.0    0.00000    0.00000    0.00000   0.00000  0.00000  0.00000  0.00000  0.00000  0.00000
2284 354141.900  -2169642.1862   4385191.2540   4078204.3180   2   5   0.2375   0.1967   0.1263  -0.1942   0.1368  -0.1328  -0.10    1.0    0.00000    0.00000    0.00000   0.00000  0.00000  0.00000  0.00000  0.00000  0.00000
2284 354142.000  -2169642.1877   4385191.2037   4078204.2936   2   5   0.2364   0.1957   0.1260  -0.1933   0.1362  -0.1322   0.00    1.0    0.00000    0.00000    0.00000   0.00000  0.00000  0.00000  0.00000  0.00000  0.00000
2284 354142.100  -2169642.1367   4385191.1442   4078204.2661   2   5   0.2354   0.1948   0.1256  -0.1925   0.1355  -0.1317   0.10    1.0    0.00000    0.00000    0.00000   0.00000  0.00000  0.00000  0.00000  0.00000  0.00000
2284 354142.200  -2169642.1621   4385191.0906   4078204.2995   2   5   0.2343   0.1939   0.1252  -0.1917   0.1348  -0.1311   0.20    1.0    0.00000    0.00000    0.00000   0.00000  0.00000  0.00000  0.00000  0.00000  0.00000
2284 354142.300  -2169642.2007   4385191.0267   4078204.2652   2   5   0.2333   0.1930   0.1249  -0.1908   0.1341  -0.1306   0.30    1.0    0.00000    0.00000    0.00000   0.00000  0.00000  0.00000  0.00000  0.00000  0.00000
2284 354142.400  -2169642.2286   4385190.9252   4078204.2884   2   5   0.2322   0.1921   0.1245  -0.1900   0.1335  -0.1301   0.40    1.0    0.00000    0.00000    0.00000   0.00000  0.00000  0.00000  0.00000  0.00000  0.00000
2284 354142.500  -2169642.3211   4385190.8019   4078204.4075   2   5   0.2312   0.1912   0.1242  -0.1892   0.1328  -0.1296   0.50    1.0    0.00000    0.00000    0.00000   0.00000  0.00000  0.00000  0.00000  0.00000  0.00000
2284 354142.600  -2169642.4290   4385190.6952   4078204.3901   2   5   0.2302   0.1904   0.1238  -0.1884   0.1322  -0.1290  -0.40    1.0    0.00000    0.00000    0.00000   0.00000  0.00000  0.00000  0.00000  0.00000  0.00000
2284 354142.700  -2169642.5450   4385190.6097   4078204.4161   2   5   0.2292   0.1895   0.1234  -0.1876   0.1316  -0.1285  -0.30    1.0    0.00000    0.00000    0.00000   0.00000  0.00000  0.00000  0.00000  0.00000  0.00000
2284 354142.800  -2169642.5649   4385190.4633   4078204.4681   2   5   0.2283   0.1887   0.1230  -0.1868   0.1310  -0.1280  -0.20    1.0    0.00000    0.00000    0.00000   0.00000  0.00000  0.00000  0.00000  0.00000  0.00000
2284 354142.900  -2169642.6534   4385190.3375   4078204.5269   2   5   0.2273   0.1878   0.1227  -0.1861   0.1304  -0.1275  -0.10    1.0    0.00000    0.00000    0.00000   0.00000  0.00000  0.00000  0.00000  0.00000  0.00000
2284 354143.000  -2169642.7534   4385190.2007   4078204.5044   2   5   0.2263   0.1870   0.1224  -0.1853   0.1298  -0.1270   0.00    1.0    0.00000    0.00000    0.00000   0.00000  0.00000  0.00000  0.00000  0.00000  0.00000
2284 354143.100  -2169642.8784   4385190.0802   4078204.5248   2   5   0.2254   0.1862   0.1220  -0.1846   0.1292  -0.1265   0.10    1.0    0.00000    0.00000    0.00000   0.00000  0.00000  0.00000  0.00000  0.00000  0.00000
2284 354143.200  -2169642.9908   4385189.9229   4078204.6579   2   5   0.2245   0.1854   0.1217  -0.1838   0.1286  -0.1260   0.20    1.0    0.00000    0.00000    0.00000   0.00000  0.00000  0.00000  0.00000  0.00000  0.00000
2284 354143.300  -2169643.0722   4385189.7571   4078204.7151   2   5   0.2236   0.1846   0.1214  -0.1831   0.1280  -0.1256   0.30    1.0    0.00000    0.00000    0.00000   0.00000  0.00000  0.00000  0.00000  0.00000  0.00000
2284 354143.400  -2169643.2072   4385189.5870   4078204.8507   2   5   0.2227   0.1839   0.1211  -0.1824   0.1274  -0.1251   0.40    1.0    0.00000    0.00000    0.00000   0.00000  0.00000  0.00000  0.00000  0.00000  0.00000
2284 354143.500  -2169643.2788   4385189.3922   4078204.9795   2   5   0.2218   0.1831   0.1209  -0.1817   0.1268  -0.1246   0.50    1.0    0.00000    0.00000    0.00000   0.00000  0.00000  0.00000  0.00000  0.00000  0.00000
2284 354143.600  -2169643.3319   4385189.2228   4078205.0382   2   5   0.2209   0.1823   0.1205  -0.1810   0.1263  -0.1242  -0.40    1.0    0.00000    0.00000    0.00000   0.00000  0.00000  0.00000  0.00000  0.00000  0.00000
2284 354143.700  -2169643.4180   4385189.0567   4078205.1405   2   5   0.2200   0.1816   0.1202  -0.1803   0.1258  -0.1237  -0.30    1.0    0.00000    0.00000    0.00000   0.00000  0.00000  0.00000  0.00000  0.00000  0.00000
2284 354143.800  -2169643.4651   4385188.8880   4078205.2801   2   5   0.2191   0.1808   0.1199  -0.1796   0.1252  -0.1232  -0.20    1.0    0.00000    0.00000    0.00000   0.00000  0.00000  0.00000  0.00000  0.00000  0.00000
2284 354143.900  -2169643.5097   4385188.7291   4078205.4342   2   5   0.2183   0.1801   0.1196  -0.1789   0.1247  -0.1228  -0.10    1.0    0.00000    0.00000    0.00000   0.00000  0.00000  0.00000  0.00000  0.00000  0.00000
2284 354144.000  -2169643.5137   4385188.6228   4078205.4362   2   5   0.2174   0.1794   0.1193  -0.1782   0.1242  -0.1224   0.00    1.0    0.00000    0.00000    0.00000   0.00000  0.00000  0.00000  0.00000  0.00000  0.00000
2284 354144.100  -2169643.5234   4385188.5583   4078205.4684   2   5   0.2166   0.1787   0.1190  -0.1775   0.1236  -0.1219   0.10    1.0    0.00000    0.00000    0.00000   0.00000  0.00000  0.00000  0.00000  0.00000  0.00000
2284 354144.200  -2169643.5278   4385188.4769   4078205.5182   2   5   0.2158   0.1780   0.1187  -0.1769   0.1231  -0.1215   0.20    1.0    0.00000    0.00000    0.00000   0.00000  0.00000  0.00000  0.00000  0.00000  0.00000
2284 354144.300  -2169643.5580   4385188.4014   4078205.5158   2   5   0.2150   0.1773   0.1185  -0.1762   0.1226  -0.1211   0.30    1.0    0.00000    0.00000    0.00000   0.00000  0.00000  0.00000  0.00000  0.00000  0.00000
2284 354144.400  -2169643.6151   4385188.3147   4078205.6163   2   5   0.2142   0.1766   0.1182  -0.1756   0.1221  -0.1207   0.40    1.0    0.00000    0.00000    0.00000   0.00000  0.00000  0.00000  0.00000  0.00000  0.00000
2284 354144.500  -2169643.6943   4385188.2586   4078205.6530   2   5   0.2134   0.1759   0.1180  -0.1750   0.1216  -0.1202   0.50    1.0    0.00000    0.00000    0.00000   0.00000  0.00000  0.00000  0.00000  0.00000  0.00000
2284 354144.600  -2169643.7655   4385188.1895   4078205.6350   2   5   0.2126   0.1753   0.1177  -0.1743   0.1211  -0.1198  -0.40    1.0    0.00000    0.00000    0.00000   0.00000  0.00000  0.00000  0.00000  0.00000  0.00000
2284 354144.700  -2169643.8720   4385188.1394   4078205.5411   2   5   0.2118   0.1746   0.1174  -0.1737   0.1206  -0.1194  -0.30    1.0    0.00000    0.00000    0.00000   0.00000  0.00000  0.00000  0.00000  0.00000  0.00000
2284 354144.800  -2169644.0057   4385188.0643   4078205.6014   2   5   0.2111   0.1739   0.1171  -0.1731   0.1201  -0.1190  -0.20    1.0    0.00000    0.00000    0.00000   0.00000  0.00000  0.00000  0.00000  0.00000  0.00000
2284 354144.900  -2169644.1063   4385187.9911   4078205.6061   2   5   0.2103   0.1733   0.1169  -0.1725   0.1197  -0.1186  -0.10    1.0    0.00000    0.00000    0.00000   0.00000  0.00000  0.00000  0.00000  0.00000  0.00000
2284 354145.000  -2169644.1985   4385187.9746   4078205.5913   2   5   0.2095   0.1726   0.1166  -0.1719   0.1192  -0.1182   0.00    1.0    0.00000    0.00000    0.00000   0.00000  0.00000  0.00000  0.00000  0.00000  0.00000
2284 354145.100  -2169644.2264   4385187.9556   4078205.5797   2   5   0.2088   0.1720   0.1164  -0.1713   0.1187  -0.1178   0.10    1.0    0.00000    0.00000    0.00000   0.00000  0.00000  0.00000  0.00000  0.00000  0.00000
2284 354145.200  -2169644.2336   4385187.9158   4078205.5730   2   5   0.2081   0.1714   0.1161  -0.1707   0.1183  -0.1174   0.20    1.1    0.00000    0.00000    0.00000   0.00000  0.00000  0.00000  0.00000  0.00000  0.00000
2284 354145.300  -2169644.2350   4385187.8976   4078205.5769   2   5   0.2073   0.1708   0.1159  -0.1701   0.1178  -0.1171   0.30    1.1    0.00000    0.00000    0.00000   0.00000  0.00000  0.00000  0.00000  0.00000  0.00000
2284 354145.400  -2169644.2289   4385187.8964   4078205.5676   2   5   0.2066   0.1702   0.1157  -0.1695   0.1174  -0.1167   0.40    1.1    0.00000    0.00000    0.00000   0.00000  0.00000  0.00000  0.00000  0.00000  0.00000
2284 354145.500  -2169644.2321   4385187.9031   4078205.5618   2   5   0.2059   0.1696   0.1155  -0.1690   0.1169  -0.1163   0.50    1.1    0.00000    0.00000    0.00000   0.00000  0.00000  0.00000  0.00000  0.00000  0.00000
2284 354145.600  -2169644.2260   4385187.8516   4078205.5916   2   5   0.2052   0.1690   0.1153  -0.1684   0.1165  -0.1159  -0.40    1.1    0.00000    0.00000    0.00000   0.00000  0.00000  0.00000  0.00000  0.00000  0.00000
2284 354145.700  -2169644.2802   4385187.7912   4078205.5842   2   5   0.2045   0.1684   0.1150  -0.1678   0.1161  -0.1156  -0.30    1.1    0.00000    0.00000    0.00000   0.00000  0.00000  0.00000  0.00000  0.00000  0.00000
2284 354145.800  -2169644.4032   4385187.7342   4078205.6675   2   5   0.2038   0.1678   0.1147  -0.1673   0.1156  -0.1152  -0.20    1.1    0.00000    0.00000    0.00000   0.00000  0.00000  0.00000  0.00000  0.00000  0.00000
2284 354145.900  -2169644.4530   4385187.6287   4078205.6762   2   5   0.2031   0.1672   0.1145  -0.1667   0.1152  -0.1148  -0.10    1.1    0.00000    0.00000    0.00000   0.00000  0.00000  0.00000  0.00000  0.00000  0.00000
2284 354146.000  -2169644.5126   4385187.5484   4078205.7363   2   5   0.2025   0.1666   0.1143  -0.1662   0.1148  -0.1145   0.00    1.1    0.00000    0.00000    0.00000   0.00000  0.00000  0.00000  0.00000  0.00000  0.00000
2284 354146.100  -2169644.5122   4385187.4621   4078205.7239   2   5   0.2018   0.1661   0.1141  -0.1656   0.1144  -0.1141   0.10    1.1    0.00000    0.00000    0.00000   0.00000  0.00000  0.00000  0.00000  0.00000  0.00000
2284 354146.200  -2169644.5413   4385187.4182   4078205.7438   2   5   0.2011   0.1655   0.1139  -0.1651   0.1140  -0.1138   0.20    1.1    0.00000    0.00000    0.00000   0.00000  0.00000  0.00000  0.00000  0.00000  0.00000
2284 354146.300  -2169644.6514   4385187.4314   4078205.8124   2   6   0.1987   0.1643   0.1131  -0.1634   0.1128  -0.1121   0.30    1.1    0.00000    0.00000    0.00000   0.00000  0.00000  0.00000  0.00000  0.00000  0.00000
2284 354146.400  -2169644.7499   4385187.4063   4078205.8570   2   6   0.1963   0.1631   0.1069  -0.1618   0.1119  -0.1093   0.40    1.1    0.00000    0.00000    0.00000   0.00000  0.00000  0.00000  0.00000  0.00000  0.00000
2284 354146.500  -2169644.8570   4385187.4067   4078205.8759   2   6   0.1941   0.1620   0.1044  -0.1602   0.1110  -0.1074   0.50    1.1    0.00000    0.00000    0.00000   0.00000  0.00000  0.00000  0.00000  0.00000  0.00000
2284 354146.600  -2169644.9654   4385187.3633   4078205.8518   2   6   0.1920   0.1608   0.1028  -0.1587   0.1101  -0.1059  -0.40    1.1    0.00000    0.00000    0.00000   0.00000  0.00000  0.00000  0.00000  0.00000  0.00000
2284 354146.700  -2169645.2614   4385187.3920   4078205.9105   2   7   0.1872   0.1580   0.1011  -0.1548   0.1080  -0.1029  -0.30    1.1    0.00000    0.00000    0.00000   0.00000  0.00000  0.00000  0.00000  0.00000  0.00000
2284 354146.800  -2169645.5650   4385187.4353   4078206.0529   2   7   0.1825   0.1549   0.0995  -0.1507   0.1065  -0.1006  -0.20    1.1    0.00000    0.00000    0.00000   0.00000  0.00000  0.00000  0.00000  0.00000  0.00000
2284 354146.900  -2169645.8564   4385187.4794   4078206.1426   2   7   0.1782   0.1523   0.0977  -0.1472   0.1051  -0.0984  -0.10    1.1    0.00000    0.00000    0.00000   0.00000  0.00000  0.00000  0.00000  0.00000  0.00000
2284 354147.000  -2169646.1463   4385187.5065   4078206.1839   2   7   0.1744   0.1500   0.0963  -0.1440   0.1036  -0.0962   0.00    1.2    0.00000    0.00000    0.00000   0.00000  0.00000  0.00000  0.00000  0.00000  0.00000
2284 354147.100  -2169646.4233   4385187.4967   4078206.2455   2   7   0.1708   0.1478   0.0951  -0.1410   0.1021  -0.0941   0.10    1.2    0.00000    0.00000    0.00000   0.00000  0.00000  0.00000  0.00000  0.00000  0.00000
2284 354147.200  -2169646.7191   4385187.4880   4078206.2949   2   7   0.1674   0.1458   0.0941  -0.1383   0.1008  -0.0921   0.20    1.2    0.00000    0.00000    0.00000   0.00000  0.00000  0.00000  0.00000  0.00000  0.00000
2284 354147.300  -2169647.0463   4385187.4690   4078206.3214   2   7   0.1644   0.1439   0.0941  -0.1357   0.0992  -0.0899   0.30    1.2    0.00000    0.00000    0.00000   0.00000  0.00000  0.00000  0.00000  0.00000  0.00000
2284 354147.400  -2169647.3765   4385187.4204   4078206.3786   2   7   0.1614   0.1422   0.0933  -0.1333   0.0979  -0.0880   0.40    1.3    0.00000    0.00000    0.00000   0.00000  0.00000  0.00000  0.00000  0.00000  0.00000
2284 354147.500  -2169647.7112   4385187.3700   4078206.4180   2   7   0.1585   0.1404   0.0916  -0.1309   0.0970  -0.0866   0.50    1.3    0.00000    0.00000    0.00000   0.00000  0.00000  0.00000  0.00000  0.00000  0.00000
2284 354147.600  -2169648.0639   4385187.3642   4078206.4753   2   7   0.1559   0.1388   0.0908  -0.1287   0.0959  -0.0850  -0.40    1.3    0.00000    0.00000    0.00000   0.00000  0.00000  0.00000  0.00000  0.00000  0.00000
2284 354147.700  -2169648.3699   4385187.3909   4078206.4934   2   7   0.1533   0.1372   0.0901  -0.1266   0.0948  -0.0835  -0.30    1.3    0.00000    0.00000    0.00000   0.00000  0.00000  0.00000  0.00000  0.00000  0.00000
2284 354147.800  -2169648.6571   4385187.4236   4078206.5063   2   7   0.1509   0.1357   0.0894  -0.1246   0.0938  -0.0821  -0.20    1.3    0.00000    0.00000    0.00000   0.00000  0.00000  0.00000  0.00000  0.00000  0.00000
2284 354147.900  -2169648.9683   4385187.4365   4078206.5573   2   7   0.1486   0.1343   0.0887  -0.1227   0.0928  -0.0807  -0.10    1.4    0.00000    0.00000    0.00000   0.00000  0.00000  0.00000  0.00000  0.00000  0.00000
2284 354148.000  -2169649.2917   4385187.4184   4078206.6005   2   7   0.1464   0.1330   0.0881  -0.1209   0.0919  -0.0794   0.00    1.4    0.00000    0.00000    0.00000   0.00000  0.00000  0.00000  0.00000  0.00000  0.00000
2284 354148.100  -2169649.6284   4385187.4018   4078206.6074   2   7   0.1444   0.1318   0.0885  -0.1192   0.0907  -0.0777   0.10    1.4    0.00000    0.00000    0.00000   0.00000  0.00000  0.00000  0.00000  0.00000  0.00000
2284 354148.200  -2169649.8714   4385187.3412   4078206.7204   2   7   0.1423   0.1305   0.0870  -0.1175   0.0901  -0.0768   0.20    1.6    0.00000    0.00000    0.00000   0.00000  0.00000  0.00000  0.00000  0.00000  0.00000
2284 354148.300  -2169650.2013   4385187.3416   4078206.6826   2   7   0.1404   0.1293   0.0875  -0.1160   0.0890  -0.0752   0.30    1.4    0.00000    0.00000    0.00000   0.00000  0.00000  0.00000  0.00000  0.00000  0.00000
2284 354148.400  -2169650.4530   4385187.2720   4078206.8023   2   7   0.1385   0.1281   0.0859  -0.1144   0.0884  -0.0745   0.40    1.7    0.00000    0.00000    0.00000   0.00000  0.00000  0.00000  0.00000  0.00000  0.00000
2284 354148.500  -2169650.7660   4385187.2217   4078206.8127   2   7   0.1367   0.1270   0.0854  -0.1129   0.0877  -0.0734   0.50    1.7    0.00000    0.00000    0.00000   0.00000  0.00000  0.00000  0.00000  0.00000  0.00000
2284 354148.600  -2169651.0552   4385187.1899   4078206.7682   2   7   0.1351   0.1260   0.0860  -0.1116   0.0866  -0.0719  -0.40    1.5    0.00000    0.00000    0.00000   0.00000  0.00000  0.00000  0.00000  0.00000  0.00000
2284 354148.700  -2169651.3467   4385187.1365   4078206.8051   2   7   0.1335   0.1250   0.0856  -0.1103   0.0859  -0.0709  -0.30    1.5    0.00000    0.00000    0.00000   0.00000  0.00000  0.00000  0.00000  0.00000  0.00000
2284 354148.800  -2169651.6237   4385187.0889   4078206.8288   2   7   0.1319   0.1240   0.0852  -0.1090   0.0852  -0.0699  -0.20    1.5    0.00000    0.00000    0.00000   0.00000  0.00000  0.00000  0.00000  0.00000  0.00000
2284 354148.900  -2169651.8995   4385187.0426   4078206.8702   2   7   0.1304   0.1231   0.0848  -0.1077   0.0845  -0.0689  -0.10    1.5    0.00000    0.00000    0.00000   0.00000  0.00000  0.00000  0.00000  0.00000  0.00000
2284 354149.000  -2169652.1582   4385187.0038   4078206.8639   2   7   0.1289   0.1222   0.0844  -0.1065   0.0838  -0.0679   0.00    1.5    0.00000    0.00000    0.00000   0.00000  0.00000  0.00000  0.00000  0.00000  0.00000
2284 354149.100  -2169652.3379   4385186.8917   4078206.8277   2   6   0.1297   0.1230   0.0845  -0.1076   0.0827  -0.0665   0.10    1.4    0.00000    0.00000    0.00000   0.00000  0.00000  0.00000  0.00000  0.00000  0.00000
2284 354149.200  -2169652.4679   4385186.7713   4078206.8825   2   6   0.1291   0.1226   0.0843  -0.1072   0.0824  -0.0661   0.20    1.3    0.00000    0.00000    0.00000   0.00000  0.00000  0.00000  0.00000  0.00000  0.00000
2284 354149.300  -2169652.6322   4385186.7023   4078206.8467   2   6   0.1285   0.1222   0.0840  -0.1068   0.0821  -0.0657   0.30    1.3    0.00000    0.00000    0.00000   0.00000  0.00000  0.00000  0.00000  0.00000  0.00000
2284 354149.400  -2169652.8208   4385186.5932   4078206.9202   2   6   0.1280   0.1219   0.0838  -0.1065   0.0817  -0.0654   0.40    1.3    0.00000    0.00000    0.00000   0.00000  0.00000  0.00000  0.00000  0.00000  0.00000
2284 354149.500  -2169653.0273   4385186.4480   4078206.9202   2   6   0.1275   0.1215   0.0836  -0.1061   0.0814  -0.0650   0.50    1.3    0.00000    0.00000    0.00000   0.00000  0.00000  0.00000  0.00000  0.00000  0.00000
2284 354149.600  -2169653.3013   4385186.3299   4078206.9130   2   6   0.1269   0.1212   0.0834  -0.1058   0.0811  -0.0646  -0.40    1.3    0.00000    0.00000    0.00000   0.00000  0.00000  0.00000  0.00000  0.00000  0.00000
2284 354149.700  -2169653.5531   4385186.1871   4078206.8748   2   6   0.1264   0.1208   0.0832  -0.1054   0.0808  -0.0643  -0.30    1.3    0.00000    0.00000    0.00000   0.00000  0.00000  0.00000  0.00000  0.00000  0.00000
2284 354149.800  -2169653.7651   4385186.0202   4078206.9056   2   6   0.1258   0.1205   0.0830  -0.1050   0.0805  -0.0639  -0.20    1.3    0.00000    0.00000    0.00000   0.00000  0.00000  0.00000  0.00000  0.00000  0.00000
2284 354149.900  -2169653.9968   4385185.8874   4078206.9234   2   6   0.1253   0.1202   0.0828  -0.1047   0.0802  -0.0635  -0.10    1.3    0.00000    0.00000    0.00000   0.00000  0.00000  0.00000  0.00000  0.00000  0.00000
2284 354150.000  -2169654.2492   4385185.7973   4078206.9095   2   6   0.1248   0.1198   0.0826  -0.1044   0.0799  -0.0632   0.00    1.3    0.00000    0.00000    0.00000   0.00000  0.00000  0.00000  0.00000  0.00000  0.00000
2284 354150.100  -2169654.4379   4385185.6515   4078206.9410   2   6   0.1243   0.1195   0.0824  -0.1040   0.0796  -0.0628   0.10    1.3    0.00000    0.00000    0.00000   0.00000  0.00000  0.00000  0.00000  0.00000  0.00000
2284 354150.200  -2169654.6443   4385185.5439   4078206.9321   2   6   0.1238   0.1192   0.0822  -0.1037   0.0793  -0.0625   0.20    1.3    0.00000    0.00000    0.00000   0.00000  0.00000  0.00000  0.00000  0.00000  0.00000
2284 354150.300  -2169654.8542   4385185.4559   4078206.8859   2   6   0.1233   0.1188   0.0820  -0.1034   0.0790  -0.0621   0.30    1.3    0.00000    0.00000    0.00000   0.00000  0.00000  0.00000  0.00000  0.00000  0.00000
2284 354150.400  -2169655.0262   4385185.3253   4078206.8984   2   6   0.1229   0.1185   0.0818  -0.1030   0.0787  -0.0618   0.40    1.3    0.00000    0.00000    0.00000   0.00000  0.00000  0.00000  0.00000  0.00000  0.00000
2284 354150.500  -2169655.2087   4385185.2300   4078206.9069   2   6   0.1224   0.1182   0.0816  -0.1027   0.0784  -0.0615   0.50    1.3    0.00000    0.00000    0.00000   0.00000  0.00000  0.00000  0.00000  0.00000  0.00000
2284 354150.600  -2169655.3773   4385185.1531   4078206.9338   2   6   0.1219   0.1179   0.0814  -0.1024   0.0781  -0.0611  -0.40    1.3    0.00000    0.00000    0.00000   0.00000  0.00000  0.00000  0.00000  0.00000  0.00000
2284 354150.700  -2169655.5563   4385185.0649   4078206.9266   2   6   0.1215   0.1176   0.0813  -0.1021   0.0778  -0.0608  -0.30    1.3    0.00000    0.00000    0.00000   0.00000  0.00000  0.00000  0.00000  0.00000  0.00000
2284 354150.800  -2169655.7055   4385184.9472   4078206.9256   2   6   0.1210   0.1173   0.0811  -0.1018   0.0775  -0.0605  -0.20    1.3    0.00000    0.00000    0.00000   0.00000  0.00000  0.00000  0.00000  0.00000  0.00000
2284 354150.900  -2169655.8841   4385184.8763   4078206.8933   2   6   0.1206   0.1170   0.0809  -0.1015   0.0773  -0.0602  -0.10    1.3    0.00000    0.00000    0.00000   0.00000  0.00000  0.00000  0.00000  0.00000  0.00000
2284 354151.000  -2169656.0439   4385184.8032   4078206.8794   2   6   0.1201   0.1166   0.0807  -0.1012   0.0770  -0.0599   0.00    1.3    0.00000    0.00000    0.00000   0.00000  0.00000  0.00000  0.00000  0.00000  0.00000
2284 354151.100  -2169656.1593   4385184.7114   4078206.9030   2   6   0.1197   0.1163   0.0805  -0.1009   0.0767  -0.0596   0.10    1.3    0.00000    0.00000    0.00000   0.00000  0.00000  0.00000  0.00000  0.00000  0.00000
2284 354151.200  -2169656.2675   4385184.6449   4078206.9116   2   6   0.1193   0.1161   0.0804  -0.1006   0.0764  -0.0593   0.20    1.3    0.00000    0.00000    0.00000   0.00000  0.00000  0.00000  0.00000  0.00000  0.00000
2284 354151.300  -2169656.3899   4385184.6004   4078206.8914   2   6   0.1188   0.1158   0.0802  -0.1003   0.0762  -0.0589   0.30    1.3    0.00000    0.00000    0.00000   0.00000  0.00000  0.00000  0.00000  0.00000  0.00000
2284 354151.400  -2169656.4892   4385184.5231   4078206.9200   2   6   0.1184   0.1155   0.0800  -0.1000   0.0759  -0.0586   0.40    1.3    0.00000    0.00000    0.00000   0.00000  0.00000  0.00000  0.00000  0.00000  0.00000
2284 354151.500  -2169656.6205   4385184.4600   4078206.9078   2   6   0.1180   0.1152   0.0799  -0.0997   0.0756  -0.0583   0.50    1.3    0.00000    0.00000    0.00000   0.00000  0.00000  0.00000  0.00000  0.00000  0.00000
2284 354151.600  -2169656.7844   4385184.4101   4078206.8928   2   6   0.1176   0.1149   0.0797  -0.0995   0.0754  -0.0580  -0.40    1.3    0.00000    0.00000    0.00000   0.00000  0.00000  0.00000  0.00000  0.00000  0.00000
2284 354151.700  -2169656.9100   4385184.3357   4078206.9220   2   6   0.1172   0.1146   0.0795  -0.0992   0.0751  -0.0577  -0.30    1.3    0.00000    0.00000    0.00000   0.00000  0.00000  0.00000  0.00000  0.00000  0.00000
2284 354151.800  -2169656.9947   4385184.2365   4078206.9233   2   6   0.1168   0.1143   0.0793  -0.0989   0.0749  -0.0575  -0.20    1.3    0.00000    0.00000    0.00000   0.00000  0.00000  0.00000  0.00000  0.00000  0.00000
2284 354151.900  -2169657.1490   4385184.2091   4078206.8751   2   6   0.1164   0.1140   0.0792  -0.0986   0.0746  -0.0572  -0.10    1.3    0.00000    0.00000    0.00000   0.00000  0.00000  0.00000  0.00000  0.00000  0.00000
2284 354152.000  -2169657.2178   4385184.1076   4078206.9039   2   6   0.1160   0.1138   0.0790  -0.0983   0.0743  -0.0569   0.00    1.3    0.00000    0.00000    0.00000   0.00000  0.00000  0.00000  0.00000  0.00000  0.00000
2284 354152.100  -2169657.3528   4385184.0306   4078206.9068   2   6   0.1156   0.1135   0.0788  -0.0981   0.0741  -0.0566   0.10    1.3    0.00000    0.00000    0.00000   0.00000  0.00000  0.00000  0.00000  0.00000  0.00000
2284 354152.200  -2169657.4938   4385183.9697   4078206.9117   2   6   0.1153   0.1132   0.0787  -0.0978   0.0738  -0.0563   0.20    1.2    0.00000    0.00000    0.00000   0.00000  0.00000  0.00000  0.00000  0.00000  0.00000
2284 354152.300  -2169657.6353   4385183.9076   4078206.8726   2   6   0.1149   0.1130   0.0785  -0.0976   0.0736  -0.0560   0.30    1.2    0.00000    0.00000    0.00000   0.00000  0.00000  0.00000  0.00000  0.00000  0.00000
2284 354152.400  -2169657.7417   4385183.8206   4078206.8987   2   6   0.1145   0.1127   0.0784  -0.0973   0.0733  -0.0558   0.40    1.3    0.00000    0.00000    0.00000   0.00000  0.00000  0.00000  0.00000  0.00000  0.00000
2284 354152.500  -2169657.8657   4385183.7394   4078206.8940   2   6   0.1142   0.1124   0.0782  -0.0971   0.0731  -0.0555   0.50    1.3    0.00000    0.00000    0.00000   0.00000  0.00000  0.00000  0.00000  0.00000  0.00000
2284 354152.600  -2169658.0313   4385183.6914   4078206.8805   2   6   0.1138   0.1122   0.0781  -0.0968   0.0728  -0.0552  -0.40    1.3    0.00000    0.00000    0.00000   0.00000  0.00000  0.00000  0.00000  0.00000  0.00000
2284 354152.700  -2169658.1762   4385183.6140   4078206.8806   2   6   0.1134   0.1119   0.0779  -0.0966   0.0726  -0.0550  -0.30    1.3    0.00000    0.00000    0.00000   0.00000  0.00000  0.00000  0.00000  0.00000  0.00000
2284 354152.800  -2169658.2918   4385183.5259   4078206.8988   2   6   0.1131   0.1116   0.0778  -0.0963   0.0724  -0.0547  -0.20    1.3    0.00000    0.00000    0.00000   0.00000  0.00000  0.00000  0.00000  0.00000  0.00000
2284 354152.900  -2169658.4266   4385183.4562   4078206.8987   2   6   0.1127   0.1114   0.0776  -0.0961   0.0721  -0.0544  -0.10    1.3    0.00000    0.00000    0.00000   0.00000  0.00000  0.00000  0.00000  0.00000  0.00000
2284 354153.000  -2169658.5626   4385183.3742   4078206.8988   2   6   0.1124   0.1111   0.0775  -0.0958   0.0719  -0.0542   0.00    1.3    0.00000    0.00000    0.00000   0.00000  0.00000  0.00000  0.00000  0.00000  0.00000
2284 354153.100  -2169658.7029   4385183.3172   4078206.9000   2   6   0.1121   0.1109   0.0773  -0.0956   0.0717  -0.0539   0.10    1.3    0.00000    0.00000    0.00000   0.00000  0.00000  0.00000  0.00000  0.00000  0.00000
2284 354153.200  -2169658.8055   4385183.2408   4078206.9032   2   6   0.1117   0.1106   0.0772  -0.0953   0.0714  -0.0537   0.20    1.2    0.00000    0.00000    0.00000   0.00000  0.00000  0.00000  0.00000  0.00000  0.00000
2284 354153.300  -2169658.9304   4385183.1913   4078206.8975   2   6   0.1114   0.1104   0.0770  -0.0951   0.0712  -0.0534   0.30    1.2    0.00000    0.00000    0.00000   0.00000  0.00000  0.00000  0.00000  0.00000  0.00000
2284 354153.400  -2169659.0281   4385183.1356   4078206.8809   2   6   0.1111   0.1101   0.0769  -0.0949   0.0710  -0.0531   0.40    1.3    0.00000    0.00000    0.00000   0.00000  0.00000  0.00000  0.00000  0.00000  0.00000
2284 354153.500  -2169659.1155   4385183.0807   4078206.8918   2   6   0.1108   0.1099   0.0768  -0.0947   0.0707  -0.0529   0.50    1.2    0.00000    0.00000    0.00000   0.00000  0.00000  0.00000  0.00000  0.00000  0.00000
2284 354153.600  -2169659.2275   4385183.0410   4078206.9022   2   6   0.1104   0.1096   0.0766  -0.0944   0.0705  -0.0526  -0.40    1.2    0.00000    0.00000    0.00000   0.00000  0.00000  0.00000  0.00000  0.00000  0.00000
2284 354153.700  -2169659.3576   4385182.9642   4078206.9150   2   6   0.1101   0.1094   0.0765  -0.0942   0.0703  -0.0524  -0.30    1.2    0.00000    0.00000    0.00000   0.00000  0.00000  0.00000  0.00000  0.00000  0.00000
2284 354153.800  -2169659.4798   4385182.8825   4078206.9166   2   6   0.1098   0.1092   0.0763  -0.0940   0.0701  -0.0522  -0.20    1.2    0.00000    0.00000    0.00000   0.00000  0.00000  0.00000  0.00000  0.00000  0.00000
2284 354153.900  -2169659.6266   4385182.8184   4078206.8995   2   6   0.1095   0.1089   0.0762  -0.0937   0.0699  -0.0519  -0.10    1.2    0.00000    0.00000    0.00000   0.00000  0.00000  0.00000  0.00000  0.00000  0.00000
2284 354154.000  -2169659.7471   4385182.7487   4078206.9272   2   6   0.1092   0.1087   0.0761  -0.0935   0.0696  -0.0517   0.00    1.2    0.00000    0.00000    0.00000   0.00000  0.00000  0.00000  0.00000  0.00000  0.00000
2284 354154.100  -2169659.8572   4385182.6743   4078206.9341   2   6   0.1089   0.1085   0.0759  -0.0933   0.0694  -0.0514   0.10    1.2    0.00000    0.00000    0.00000   0.00000  0.00000  0.00000  0.00000  0.00000  0.00000
2284 354154.200  -2169659.9568   4385182.6069   4078206.9336   2   6   0.1086   0.1082   0.0758  -0.0931   0.0692  -0.0512   0.20    1.2    0.00000    0.00000    0.00000   0.00000  0.00000  0.00000  0.00000  0.00000  0.00000
2284 354154.300  -2169660.0350   4385182.5563   4078206.9296   2   6   0.1083   0.1080   0.0757  -0.0929   0.0690  -0.0510   0.30    1.2    0.00000    0.00000    0.00000   0.00000  0.00000  0.00000  0.00000  0.00000  0.00000
2284 354154.400  -2169660.1272   4385182.5245   4078206.9228   2   6   0.1080   0.1078   0.0756  -0.0927   0.0688  -0.0507   0.40    1.2    0.00000    0.00000    0.00000   0.00000  0.00000  0.00000  0.00000  0.00000  0.00000
2284 354154.500  -2169660.1992   4385182.4726   4078206.9357   2   6   0.1077   0.1076   0.0754  -0.0925   0.0686  -0.0505   0.50    1.3    0.00000    0.00000    0.00000   0.00000  0.00000  0.00000  0.00000  0.00000  0.00000
2284 354154.600  -2169660.2822   4385182.4128   4078206.9324   2   6   0.1074   0.1073   0.0753  -0.0923   0.0684  -0.0503  -0.40    1.2    0.00000    0.00000    0.00000   0.00000  0.00000  0.00000  0.00000  0.00000  0.00000
2284 354154.700  -2169660.3654   4385182.3486   4078206.9548   2   6   0.1071   0.1071   0.0752  -0.0921   0.0681  -0.0501  -0.30    1.2    0.00000    0.00000    0.00000   0.00000  0.00000  0.00000  0.00000  0.00000  0.00000
2284 354154.800  -2169660.4560   4385182.2921   4078206.9644   2   6   0.1068   0.1069   0.0750  -0.0918   0.0679  -0.0498  -0.20    1.2    0.00000    0.00000    0.00000   0.00000  0.00000  0.00000  0.00000  0.00000  0.00000
2284 354154.900  -2169660.5516   4385182.2499   4078206.9537   2   6   0.1065   0.1066   0.0749  -0.0916   0.0677  -0.0496  -0.10    1.2    0.00000    0.00000    0.00000   0.00000  0.00000  0.00000  0.00000  0.00000  0.00000
2284 354155.000  -2169660.6621   4385182.2003   4078206.9459   2   6   0.1063   0.1064   0.0748  -0.0914   0.0675  -0.0494   0.00    1.2    0.00000    0.00000    0.00000   0.00000  0.00000  0.00000  0.00000  0.00000  0.00000
2284 354155.100  -2169660.7172   4385182.1020   4078206.9869   2   6   0.1060   0.1062   0.0746  -0.0912   0.0673  -0.0492   0.10    1.2    0.00000    0.00000    0.00000   0.00000  0.00000  0.00000  0.00000  0.00000  0.00000
2284 354155.200  -2169660.8415   4385182.0581   4078206.9716   2   6   0.1057   0.1060   0.0745  -0.0910   0.0671  -0.0489   0.20    1.2    0.00000    0.00000    0.00000   0.00000  0.00000  0.00000  0.00000  0.00000  0.00000
2284 354155.300  -2169660.9591   4385181.9992   4078206.9454   2   6   0.1054   0.1058   0.0744  -0.0909   0.0669  -0.0487   0.30    1.3    0.00000    0.00000    0.00000   0.00000  0.00000  0.00000  0.00000  0.00000  0.00000
2284 354155.400  -2169661.0357   4385181.9353   4078206.9846   2   6   0.1052   0.1056   0.0743  -0.0907   0.0667  -0.0485   0.40    1.3    0.00000    0.00000    0.00000   0.00000  0.00000  0.00000  0.00000  0.00000  0.00000
2284 354155.500  -2169661.1373   4385181.8707   4078206.9880   2   6   0.1049   0.1054   0.0742  -0.0905   0.0665  -0.0483   0.50    1.3    0.00000    0.00000    0.00000   0.00000  0.00000  0.00000  0.00000  0.00000  0.00000
2284 354155.600  -2169661.2216   4385181.7966   4078206.9988   2   6   0.1047   0.1052   0.0741  -0.0903   0.0663  -0.0480  -0.40    1.3    0.00000    0.00000    0.00000   0.00000  0.00000  0.00000  0.00000  0.00000  0.00000
2284 354155.700  -2169661.3546   4385181.7507   4078207.0051   2   6   0.1044   0.1050   0.0739  -0.0901   0.0661  -0.0479  -0.30    1.3    0.00000    0.00000    0.00000   0.00000  0.00000  0.00000  0.00000  0.00000  0.00000
2284 354155.800  -2169661.4864   4385181.6766   4078207.0115   2   6   0.1041   0.1047   0.0738  -0.0899   0.0660  -0.0477  -0.20    1.3    0.00000    0.00000    0.00000   0.00000  0.00000  0.00000  0.00000  0.00000  0.00000
2284 354155.900  -2169661.6076   4385181.6318   4078207.0206   2   6   0.1039   0.1045   0.0737  -0.0897   0.0658  -0.0474  -0.10    1.3    0.00000    0.00000    0.00000   0.00000  0.00000  0.00000  0.00000  0.00000  0.00000
2284 354156.000  -2169661.6857   4385181.5761   4078207.0331   2   6   0.1036   0.1043   0.0736  -0.0895   0.0656  -0.0472   0.00    1.3    0.00000    0.00000    0.00000   0.00000  0.00000  0.00000  0.00000  0.00000  0.00000
2284 354156.100  -2169661.7644   4385181.5090   4078207.0261   2   6   0.1034   0.1041   0.0735  -0.0893   0.0654  -0.0470   0.10    1.3    0.00000    0.00000    0.00000   0.00000  0.00000  0.00000  0.00000  0.00000  0.00000
2284 354156.200  -2169661.8660   4385181.4607   4078207.0098   2   6   0.1031   0.1039   0.0733  -0.0892   0.0652  -0.0468   0.20    1.3    0.00000    0.00000    0.00000   0.00000  0.00000  0.00000  0.00000  0.00000  0.00000
2284 354156.300  -2169661.9638   4385181.4153   4078207.0031   2   6   0.1029   0.1037   0.0732  -0.0890   0.0650  -0.0466   0.30    1.3    0.00000    0.00000    0.00000   0.00000  0.00000  0.00000  0.00000  0.00000  0.00000
2284 354156.400  -2169662.0597   4385181.3625   4078207.0167   2   6   0.1027   0.1036   0.0731  -0.0888   0.0648  -0.0464   0.40    1.3    0.00000    0.00000    0.00000   0.00000  0.00000  0.00000  0.00000  0.00000  0.00000
2284 354156.500  -2169662.1372   4385181.2686   4078207.0274   2   6   0.1024   0.1034   0.0730  -0.0887   0.0646  -0.0462   0.50    1.3    0.00000    0.00000    0.00000   0.00000  0.00000  0.00000  0.00000  0.00000  0.00000
2284 354156.600  -2169662.2006   4385181.1906   4078207.0482   2   6   0.1022   0.1032   0.0729  -0.0885   0.0644  -0.0460  -0.40    1.3    0.00000    0.00000    0.00000   0.00000  0.00000  0.00000  0.00000  0.00000  0.00000
2284 354156.700  -2169662.2992   4385181.1530   4078207.0459   2   6   0.1019   0.1030   0.0728  -0.0883   0.0643  -0.0458  -0.30    1.3    0.00000    0.00000    0.00000   0.00000  0.00000  0.00000  0.00000  0.00000  0.00000
2284 354156.800  -2169662.4010   4385181.0899   4078207.0495   2   6   0.1017   0.1028   0.0727  -0.0881   0.0641  -0.0456  -0.20    1.3    0.00000    0.00000    0.00000   0.00000  0.00000  0.00000  0.00000  0.00000  0.00000
2284 354156.900  -2169662.5412   4385181.0259   4078207.0447   2   6   0.1015   0.1026   0.0726  -0.0879   0.0639  -0.0454  -0.10    1.3    0.00000    0.00000    0.00000   0.00000  0.00000  0.00000  0.00000  0.00000  0.00000
2284 354157.000  -2169662.6676   4385180.9337   4078207.0592   2   6   0.1012   0.1024   0.0725  -0.0878   0.0637  -0.0452   0.00    1.3    0.00000    0.00000    0.00000   0.00000  0.00000  0.00000  0.00000  0.00000  0.00000
2284 354157.100  -2169662.7864   4385180.8220   4078207.0594   2   6   0.1010   0.1022   0.0724  -0.0876   0.0636  -0.0450   0.10    1.3    0.00000    0.00000    0.00000   0.00000  0.00000  0.00000  0.00000  0.00000  0.00000
2284 354157.200  -2169662.9292   4385180.7722   4078207.0693   2   6   0.1008   0.1020   0.0722  -0.0874   0.0634  -0.0448   0.20    1.3    0.00000    0.00000    0.00000   0.00000  0.00000  0.00000  0.00000  0.00000  0.00000
2284 354157.300  -2169663.0512   4385180.7139   4078207.0695   2   6   0.1006   0.1018   0.0721  -0.0873   0.0632  -0.0446   0.30    1.3    0.00000    0.00000    0.00000   0.00000  0.00000  0.00000  0.00000  0.00000  0.00000
2284 354157.400  -2169663.1577   4385180.6397   4078207.0707   2   6   0.1003   0.1017   0.0721  -0.0871   0.0630  -0.0444   0.40    1.3    0.00000    0.00000    0.00000   0.00000  0.00000  0.00000  0.00000  0.00000  0.00000
2284 354157.500  -2169663.2629   4385180.5664   4078207.0870   2   6   0.1001   0.1015   0.0720  -0.0870   0.0628  -0.0442   0.50    1.3    0.00000    0.00000    0.00000   0.00000  0.00000  0.00000  0.00000  0.00000  0.00000
2284 354157.600  -2169663.3656   4385180.4988   4078207.1037   2   6   0.0999   0.1013   0.0718  -0.0868   0.0627  -0.0441  -0.40    1.3    0.00000    0.00000    0.00000   0.00000  0.00000  0.00000  0.00000  0.00000  0.00000
2284 354157.700  -2169663.4853   4385180.4220   4078207.1120   2   6   0.0997   0.1011   0.0717  -0.0866   0.0625  -0.0439  -0.30    1.3    0.00000    0.00000    0.00000   0.00000  0.00000  0.00000  0.00000  0.00000  0.00000
2284 354157.800  -2169663.6316   4385180.3227   4078207.0985   2   6   0.0995   0.1009   0.0716  -0.0865   0.0623  -0.0437  -0.20    1.3    0.00000    0.00000    0.00000   0.00000  0.00000  0.00000  0.00000  0.00000  0.00000
2284 354157.900  -2169663.7841   4385180.2464   4078207.1042   2   6   0.0992   0.1007   0.0715  -0.0863   0.0622  -0.0435  -0.10    1.3    0.00000    0.00000    0.00000   0.00000  0.00000  0.00000  0.00000  0.00000  0.00000
2284 354158.000  -2169663.9213   4385180.1462   4078207.1255   2   6   0.0990   0.1006   0.0714  -0.0861   0.0620  -0.0433   0.00    1.3    0.00000    0.00000    0.00000   0.00000  0.00000  0.00000  0.00000  0.00000  0.00000
2284 354158.100  -2169664.0780   4385180.0501   4078207.1166   2   6   0.0988   0.1004   0.0713  -0.0860   0.0618  -0.0432   0.10    1.3    0.00000    0.00000    0.00000   0.00000  0.00000  0.00000  0.00000  0.00000  0.00000
2284 354158.200  -2169664.2165   4385179.9707   4078207.1276   2   6   0.0986   0.1002   0.0712  -0.0858   0.0617  -0.0430   0.20    1.3    0.00000    0.00000    0.00000   0.00000  0.00000  0.00000  0.00000  0.00000  0.00000
2284 354158.300  -2169664.3455   4385179.8857   4078207.1116   2   6   0.0984   0.1000   0.0711  -0.0857   0.0615  -0.0428   0.30    1.3    0.00000    0.00000    0.00000   0.00000  0.00000  0.00000  0.00000  0.00000  0.00000
2284 354158.400  -2169664.4317   4385179.8329   4078207.1421   2   6   0.0982   0.0999   0.0710  -0.0856   0.0613  -0.0426   0.40    1.3    0.00000    0.00000    0.00000   0.00000  0.00000  0.00000  0.00000  0.00000  0.00000
