% obs start : 2023/10/19 02:22:12.0
% obs end   : 2023/10/19 02:27:13.3
%
%  GPST              x-ecef(m)      y-ecef(m)      z-ecef(m)   Q  ns   sdx(m)   sdy(m)   sdz(m)  sdxy(m)  sdyz(m)  sdzx(m) age(s)  ratio    vx(m/s)    vy(m/s)    vz(m/s)      sdvx     sdvy     sdvz    sdvxy    sdvyz    sdvzx
2284 354132.000  -2169637.2711   4385199.9818   4078202.3108   2   6   1.4117   2.5496   1.4538  -1.6047   1.8465  -1.0948   0.00    0.0    0.00000    0.00000    0.00000   0.00000  0.00000  0.00000  0.00000  0.00000  0.00000
2284 354132.100  -2169637.3414   4385199.9696   4078202.4689   2   6   1.0020   1.8077   1.0307  -1.1383   1.3091  -0.7765   0.10    0.0    0.00000    0.00000    0.00000   0.00000  0.00000  0.00000  0.00000  0.00000  0.00000
2284 354132.200  -2169637.4134   4385199.9953   4078202.6059   2   6   0.8192   1.4773   0.8423  -0.9304   1.0698  -0.6346   0.20    0.0    0.00000    0.00000    0.00000   0.00000  0.00000  0.00000  0.00000  0.00000  0.00000
2284 354132.300  -2169637.4143   4385199.8701   4078202.6725   2   6   0.7099   1.2800   0.7298  -0.8062   0.9269  -0.5499   0.30    0.0    0.00000    0.00000    0.00000   0.00000  0.00000  0.00000  0.00000  0.00000  0.00000
2284 354132.400  -2169637.4567   4385199.7790   4078202.7791   2   5   0.6867   1.1615   0.6593  -0.7556   0.8399  -0.5156   0.40    0.0    0.00000    0.00000    0.00000   0.00000  0.00000  0.00000  0.00000  0.00000  0.00000
2284 354132.500  -2169638.9480   4385199.8134   4078203.4806   1   6   0.0198   0.0279   0.0155  -0.0201   0.0201  -0.0138   0.50    0.0    0.00000    0.00000    0.00000   0.00000  0.00000  0.00000  0.00000  0.00000  0.00000
2284 354132.600  -2169640.4833   4385204.3072   4078205.8489   1   6   0.0143   0.0259   0.0148  -0.0163   0.0187  -0.0111  -0.40    0.0    0.00000    0.00000    0.00000   0.00000  0.00000  0.00000  0.00000  0.00000  0.00000
2284 354132.700  -2169638.7053   4385199.1277   4078202.7413   1   6   0.0143   0.0258   0.0148  -0.0163   0.0187  -0.0111  -0.30    0.0    0.00000    0.00000    0.00000   0.00000  0.00000  0.00000  0.00000  0.00000  0.00000
2284 354132.800  -2169638.7691   4385198.9788   4078202.8749   1   6   0.0143   0.0258   0.0147  -0.0163   0.0186  -0.0111  -0.20    0.0    0.00000    0.00000    0.00000   0.00000  0.00000  0.00000  0.00000  0.00000  0.00000
2284 354132.900  -2169639.1384   4385199.1399   4078203.9147   1   5   0.0336   0.0344   0.0182  -0.0309   0.0243  -0.0212  -0.10    0.0    0.00000    0.00000    0.00000   0.00000  0.00000  0.00000  0.00000  0.00000  0.00000
2284 354133.000  -2169639.1598   4385198.9094   4078203.9806   1   5   0.0336   0.0344   0.0181  -0.0309   0.0243  -0.0212   0.00    0.0    0.00000    0.00000    0.00000   0.00000  0.00000  0.00000  0.00000  0.00000  0.00000
2284 354133.100  -2169639.2827   4385198.8182   4078204.1196   1   5   0.0336   0.0344   0.0182  -0.0309   0.0243  -0.0212   0.10    0.0    0.00000    0.00000    0.00000   0.00000  0.00000  0.00000  0.00000  0.00000  0.00000
2284 354133.200  -2169639.3494   4385198.7356   4078204.2437   1   5   0.0336   0.0344   0.0182  -0.0310   0.0244  -0.0212   0.20    0.0    0.00000    0.00000    0.00000   0.00000  0.00000  0.00000  0.00000  0.00000  0.00000
2284 354133.300  -2169639.4365   4385198.6419   4078204.3372   1   5   0.0337   0.0345   0.0182  -0.0310   0.0244  -0.0212   0.30    0.0    0.00000    0.00000    0.00000   0.00000  0.00000  0.00000  0.00000  0.00000  0.00000
2284 354133.400  -2169639.5623   4385198.5708   4078204.4468   1   5   0.0337   0.0345   0.0182  -0.0311   0.0244  -0.0213   0.40    0.0    0.00000    0.00000    0.00000   0.00000  0.00000  0.00000  0.00000  0.00000  0.00000
2284 354133.500  -2169639.6238   4385198.4600   4078204.5418   1   5   0.0338   0.0346   0.0183  -0.0311   0.0245  -0.0213   0.50    0.0    0.00000    0.00000    0.00000   0.00000  0.00000  0.00000  0.00000  0.00000  0.00000
2284 354133.600  -2169639.6233   4385198.3547   4078204.5995   1   5   0.0337   0.0345   0.0181  -0.0311   0.0245  -0.0213  -0.40    0.0    0.00000    0.00000    0.00000   0.00000  0.00000  0.00000  0.00000  0.00000  0.00000
2284 354133.700  -2169639.6236   4385198.2413   4078204.6406   1   5   0.0337   0.0345   0.0182  -0.0310   0.0244  -0.0212  -0.30    0.0    0.00000    0.00000    0.00000   0.00000  0.00000  0.00000  0.00000  0.00000  0.00000
2284 354133.800  -2169639.7036   4385198.1322   4078204.6965   1   5   0.0336   0.0344   0.0182  -0.0310   0.0244  -0.0212  -0.20    0.0    0.00000    0.00000    0.00000   0.00000  0.00000  0.00000  0.00000  0.00000  0.00000
2284 354133.900  -2169639.7534   4385198.0468   4078204.7725   1   5   0.0336   0.0344   0.0182  -0.0309   0.0243  -0.0212  -0.10    0.0    0.00000    0.00000    0.00000   0.00000  0.00000  0.00000  0.00000  0.00000  0.00000
2284 354134.000  -2169639.8721   4385197.9468   4078204.8744   1   5   0.0336   0.0344   0.0182  -0.0309   0.0243  -0.0212   0.00    0.0    0.00000    0.00000    0.00000   0.00000  0.00000  0.00000  0.00000  0.00000  0.00000
2284 354134.100  -2169640.0478   4385197.8887   4078205.0129   1   5   0.0336   0.0344   0.0182  -0.0309   0.0243  -0.0212   0.10    0.0    0.00000    0.00000    0.00000   0.00000  0.00000  0.00000  0.00000  0.00000  0.00000
2284 354134.200  -2169640.0983   4385197.7110   4078205.0683   1   5   0.0336   0.0344   0.0182  -0.0310   0.0244  -0.0212   0.20    0.0    0.00000    0.00000    0.00000   0.00000  0.00000  0.00000  0.00000  0.00000  0.00000
2284 354134.300  -2169640.0860   4385197.5800   4078205.1098   1   5   0.0337   0.0345   0.0182  -0.0310   0.0244  -0.0212   0.30    0.0    0.00000    0.00000    0.00000   0.00000  0.00000  0.00000  0.00000  0.00000  0.00000
2284 354134.400  -2169640.1361   4385197.5276   4078205.1387   1   6   0.0337   0.0345   0.0182  -0.0311   0.0244  -0.0213   0.40    0.0    0.00000    0.00000    0.00000   0.00000  0.00000  0.00000  0.00000  0.00000  0.00000
2284 354134.500  -2169640.1594   4385197.4974   4078205.1482   1   6   0.0312   0.0282   0.0151  -0.0268   0.0199  -0.0183   0.50    0.0    0.00000    0.00000    0.00000   0.00000  0.00000  0.00000  0.00000  0.00000  0.00000
2284 354134.600  -2169640.2092   4385197.5047   4078205.1662   1   6   0.0302   0.0256   0.0139  -0.0251   0.0182  -0.0172  -0.40    0.0    0.00000    0.00000    0.00000   0.00000  0.00000  0.00000  0.00000  0.00000  0.00000
2284 354134.700  -2169639.8662   4385197.1362   4078204.2440   1   7   0.0297   0.0243   0.0133  -0.0242   0.0172  -0.0166  -0.30    0.0    0.00000    0.00000    0.00000   0.00000  0.00000  0.00000  0.00000  0.00000  0.00000
2284 354134.800  -2169639.8630   4385197.1133   4078204.2506   1   8   0.0274   0.0232   0.0129  -0.0231   0.0166  -0.0161  -0.20    0.0    0.00000    0.00000    0.00000   0.00000  0.00000  0.00000  0.00000  0.00000  0.00000
2284 354134.900  -2169639.8782   4385197.0589   4078204.2793   1   8   0.0239   0.0185   0.0104  -0.0193   0.0129  -0.0133  -0.10    0.0    0.00000    0.00000    0.00000   0.00000  0.00000  0.00000  0.00000  0.00000  0.00000
2284 354135.000  -2169639.9280   4385196.9587   4078204.3196   1   8   0.0230   0.0181   0.0100  -0.0187   0.0126  -0.0128   0.00    0.0    0.00000    0.00000    0.00000   0.00000  0.00000  0.00000  0.00000  0.00000  0.00000
2284 354135.100  -2169639.9690   4385196.8377   4078204.3843   1   8   0.0225   0.0179   0.0097  -0.0184   0.0125  -0.0126   0.10    0.0    0.00000    0.00000    0.00000   0.00000  0.00000  0.00000  0.00000  0.00000  0.00000
2284 354135.200  -2169640.0156   4385196.7072   4078204.4588   1   8   0.0213   0.0177   0.0098  -0.0180   0.0124  -0.0124   0.20    0.0    0.00000    0.00000    0.00000   0.00000  0.00000  0.00000  0.00000  0.00000  0.00000
2284 354135.300  -2169640.0493   4385196.5324   4078204.5205   1   8   0.0207   0.0173   0.0096  -0.0174   0.0119  -0.0118   0.30    0.0    0.00000    0.00000    0.00000   0.00000  0.00000  0.00000  0.00000  0.00000  0.00000
2284 354135.400  -2169640.2429   4385196.4601   4078204.6489   1   7   0.0239   0.0193   0.0112  -0.0202   0.0139  -0.0146   0.40    0.0    0.00000    0.00000    0.00000   0.00000  0.00000  0.00000  0.00000  0.00000  0.00000
2284 354135.500  -2169640.3033   4385196.3485   4078204.7181   1   7   0.0240   0.0194   0.0112  -0.0202   0.0140  -0.0146   0.50    0.0    0.00000    0.00000    0.00000   0.00000  0.00000  0.00000  0.00000  0.00000  0.00000
2284 354135.600  -2169640.4169   4385196.2974   4078204.7728   1   7   0.0239   0.0193   0.0112  -0.0202   0.0140  -0.0146  -0.40    0.0    0.00000    0.00000    0.00000   0.00000  0.00000  0.00000  0.00000  0.00000  0.00000
2284 354135.700  -2169640.3805   4385196.2216   4078204.7840   1   7   0.0239   0.0193   0.0112  -0.0201   0.0139  -0.0146  -0.30    0.0    0.00000    0.00000    0.00000   0.00000  0.00000  0.00000  0.00000  0.00000  0.00000
2284 354135.800  -2169640.3636   4385196.1882   4078204.8084   1   7   0.0239   0.0193   0.0111  -0.0201   0.0139  -0.0145  -0.20    0.0    0.00000    0.00000    0.00000   0.00000  0.00000  0.00000  0.00000  0.00000  0.00000
2284 354135.900  -2169640.6150   4385196.2371   4078204.8328   1   6   0.0282   0.0197   0.0112  -0.0215   0.0139  -0.0147  -0.10    0.0    0.00000    0.00000    0.00000   0.00000  0.00000  0.00000  0.00000  0.00000  0.00000
2284 354136.000  -2169640.6241   4385196.2397   4078204.8385   1   6   0.0282   0.0197   0.0110  -0.0215   0.0140  -0.0146   0.00    0.0    0.00000    0.00000    0.00000   0.00000  0.00000  0.00000  0.00000  0.00000  0.00000
2284 354136.100  -2169640.6376   4385196.2100   4078204.8368   1   6   0.0282   0.0196   0.0112  -0.0215   0.0140  -0.0146   0.10    0.0    0.00000    0.00000    0.00000   0.00000  0.00000  0.00000  0.00000  0.00000  0.00000
2284 354136.200  -2169640.7187   4385196.1496   4078204.8612   1   6   0.0282   0.0196   0.0110  -0.0215   0.0141  -0.0146   0.20    0.0    0.00000    0.00000    0.00000   0.00000  0.00000  0.00000  0.00000  0.00000  0.00000
2284 354136.300  -2169640.8150   4385196.0575   4078204.8911   1   6   0.0282   0.0197   0.0113  -0.0215   0.0140  -0.0147   0.30    0.0    0.00000    0.00000    0.00000   0.00000  0.00000  0.00000  0.00000  0.00000  0.00000
2284 354136.400  -2169640.9246   4385195.9566   4078204.9186   1   6   0.0283   0.0197   0.0112  -0.0215   0.0140  -0.0147   0.40    0.0    0.00000    0.00000    0.00000   0.00000  0.00000  0.00000  0.00000  0.00000  0.00000
2284 354136.500  -2169641.0027   4385195.8468   4078204.9487   1   6   0.0284   0.0197   0.0113  -0.0216   0.0140  -0.0147   0.50    0.0    0.00000    0.00000    0.00000   0.00000  0.00000  0.00000  0.00000  0.00000  0.00000
2284 354136.600  -2169641.1066   4385195.7897   4078204.9994   1   6   0.0283   0.0197   0.0111  -0.0215   0.0140  -0.0147  -0.40    0.0    0.00000    0.00000    0.00000   0.00000  0.00000  0.00000  0.00000  0.00000  0.00000
2284 354136.700  -2169641.1654   4385195.7689   4078205.0015   1   6   0.0282   0.0197   0.0112  -0.0215   0.0140  -0.0147  -0.30    0.0    0.00000    0.00000    0.00000   0.00000  0.00000  0.00000  0.00000  0.00000  0.00000
2284 354136.800  -2169641.1501   4385195.7705   4078205.0051   1   6   0.0282   0.0197   0.0113  -0.0215   0.0140  -0.0147  -0.20    0.0    0.00000    0.00000    0.00000   0.00000  0.00000  0.00000  0.00000  0.00000  0.00000
2284 354136.900  -2169641.1246   4385195.7735   4078205.0048   1   6   0.0282   0.0196   0.0111  -0.0215   0.0140  -0.0146  -0.10    0.0    0.00000    0.00000    0.00000   0.00000  0.00000  0.00000  0.00000  0.00000  0.00000
2284 354137.000  -2169641.1211   4385195.7718   4078205.0023   1   6   0.0282   0.0197   0.0113  -0.0214   0.0139  -0.0146   0.00    0.0    0.00000    0.00000    0.00000   0.00000  0.00000  0.00000  0.00000  0.00000  0.00000
2284 354137.100  -2169641.1243   4385195.7679   4078205.0024   1   6   0.0282   0.0196   0.0112  -0.0215   0.0140  -0.0147   0.10    0.0    0.00000    0.00000    0.00000   0.00000  0.00000  0.00000  0.00000  0.00000  0.00000
2284 354137.200  -2169641.1382   4385195.7676   4078205.0063   1   6   0.0282   0.0197   0.0113  -0.0215   0.0139  -0.0147   0.20    0.0    0.00000    0.00000    0.00000   0.00000  0.00000  0.00000  0.00000  0.00000  0.00000
2284 354137.300  -2169641.1544   4385195.7751   4078205.0079   1   6   0.0282   0.0197   0.0112  -0.0215   0.0140  -0.0147   0.30    0.0    0.00000    0.00000    0.00000   0.00000  0.00000  0.00000  0.00000  0.00000  0.00000
2284 354137.400  -2169641.1699   4385195.7616   4078205.0034   1   6   0.0283   0.0197   0.0111  -0.0215   0.0140  -0.0147   0.40    0.0    0.00000    0.00000    0.00000   0.00000  0.00000  0.00000  0.00000  0.00000  0.00000
2284 354137.500  -2169641.2301   4385195.7126   4078204.9987   1   6   0.0284   0.0197   0.0113  -0.0216   0.0140  -0.0147   0.50    0.0    0.00000    0.00000    0.00000   0.00000  0.00000  0.00000  0.00000  0.00000  0.00000
2284 354137.600  -2169641.3499   4385195.6838   4078205.0133   1   6   0.0323   0.0219   0.0149  -0.0248   0.0170  -0.0192  -0.40    0.0    0.00000    0.00000    0.00000   0.00000  0.00000  0.00000  0.00000  0.00000  0.00000
2284 354137.700  -2169641.4520   4385195.6787   4078205.0269   1   6   0.0303   0.0208   0.0131  -0.0232   0.0156  -0.0171  -0.30    0.0    0.00000    0.00000    0.00000   0.00000  0.00000  0.00000  0.00000  0.00000  0.00000
2284 354137.800  -2169641.6892   4385195.8257   4078205.5124   1   6   0.0322   0.0227   0.0153  -0.0252   0.0138  -0.0153  -0.20    0.0    0.00000    0.00000    0.00000   0.00000  0.00000  0.00000  0.00000  0.00000  0.00000
2284 354137.900  -2169641.6789   4385195.7492   4078205.5048   1   6   0.0303   0.0213   0.0152  -0.0234   0.0135  -0.0150  -0.10    0.0    0.00000    0.00000    0.00000   0.00000  0.00000  0.00000  0.00000  0.00000  0.00000
2284 354138.000  -2169641.7886   4385195.7067   4078205.5117   1   6   0.0322   0.0227   0.0150  -0.0252   0.0138  -0.0153   0.00    0.0    0.00000    0.00000    0.00000   0.00000  0.00000  0.00000  0.00000  0.00000  0.00000
2284 354138.100  -2169641.7842   4385195.4688   4078205.0245   1   6   0.0322   0.0226   0.0112  -0.0252   0.0144  -0.0152   0.10    0.0    0.00000    0.00000    0.00000   0.00000  0.00000  0.00000  0.00000  0.00000  0.00000
2284 354138.200  -2169641.9433   4385195.3848   4078204.9943   1   6   0.0303   0.0212   0.0112  -0.0234   0.0142  -0.0149   0.20    0.0    0.00000    0.00000    0.00000   0.00000  0.00000  0.00000  0.00000  0.00000  0.00000
2284 354138.300  -2169642.1638   4385195.3709   4078205.0208   1   6   0.0296   0.0207   0.0113  -0.0228   0.0141  -0.0149   0.30    0.0    0.00000    0.00000    0.00000   0.00000  0.00000  0.00000  0.00000  0.00000  0.00000
2284 354138.400  -2169642.2410   4385195.3010   4078205.0213   1   5   0.0305   0.0214   0.0113  -0.0236   0.0143  -0.0151   0.40    0.0    0.00000    0.00000    0.00000   0.00000  0.00000  0.00000  0.00000  0.00000  0.00000
2284 354138.500  -2169642.3263   4385195.2115   4078205.0189   1   5   0.0304   0.0214   0.0113  -0.0236   0.0143  -0.0151   0.50    0.0    0.00000    0.00000    0.00000   0.00000  0.00000  0.00000  0.00000  0.00000  0.00000
2284 354138.600  -2169642.4073   4385195.1029   4078205.0516   1   5   0.0298   0.0210   0.0113  -0.0231   0.0142  -0.0150  -0.40    0.0    0.00000    0.00000    0.00000   0.00000  0.00000  0.00000  0.00000  0.00000  0.00000
2284 354138.700  -2169642.5351   4385194.9985   4078205.0600   1   5   0.0298   0.0210   0.0113  -0.0230   0.0142  -0.0150  -0.30    0.0    0.00000    0.00000    0.00000   0.00000  0.00000  0.00000  0.00000  0.00000  0.00000
2284 354138.800  -2169642.9623   4385195.1971   4078205.4831   1   5   0.0323   0.0220   0.0157  -0.0248   0.0166  -0.0190  -0.20    0.0    0.00000    0.00000    0.00000   0.00000  0.00000  0.00000  0.00000  0.00000  0.00000
2284 354138.900  -2169643.0755   4385195.1229   4078205.4807   1   5   0.0310   0.0215   0.0136  -0.0239   0.0154  -0.0171  -0.10    0.0    0.00000    0.00000    0.00000   0.00000  0.00000  0.00000  0.00000  0.00000  0.00000
2284 354139.000  -2169643.1176   4385195.0703   4078205.4764   1   5   0.0312   0.0217   0.0137  -0.0241   0.0156  -0.0173   0.00    0.0    0.00000    0.00000    0.00000   0.00000  0.00000  0.00000  0.00000  0.00000  0.00000
2284 354139.100  -2169643.2258   4385195.0492   4078205.4744   1   5   0.0322   0.0227   0.0170  -0.0252   0.0138  -0.0155   0.10    0.0    0.00000    0.00000    0.00000   0.00000  0.00000  0.00000  0.00000  0.00000  0.00000
2284 354139.200  -2169643.3237   4385194.9745   4078205.4823   1   5   0.0322   0.0227   0.0169  -0.0252   0.0138  -0.0155   0.20    0.0    0.00000    0.00000    0.00000   0.00000  0.00000  0.00000  0.00000  0.00000  0.00000
2284 354139.300  -2169643.2938   4385194.7305   4078205.0255   1   5   0.0307   0.0216   0.0126  -0.0238   0.0152  -0.0164   0.30    0.0    0.00000    0.00000    0.00000   0.00000  0.00000  0.00000  0.00000  0.00000  0.00000
2284 354139.400  -2169643.3820   4385194.6658   4078205.0066   1   5   0.0308   0.0216   0.0126  -0.0239   0.0153  -0.0164   0.40    0.0    0.00000    0.00000    0.00000   0.00000  0.00000  0.00000  0.00000  0.00000  0.00000
2284 354139.500  -2169643.3794   4385194.5660   4078204.9975   1   5   0.0309   0.0216   0.0126  -0.0239   0.0153  -0.0164   0.50    0.0    0.00000    0.00000    0.00000   0.00000  0.00000  0.00000  0.00000  0.00000  0.00000
2284 354139.600  -2169643.6882   4385194.7603   4078205.5565   1   4   0.0324   0.0243   0.0541  -0.0251  -0.0157  -0.0176  -0.40    0.0    0.00000    0.00000    0.00000   0.00000  0.00000  0.00000  0.00000  0.00000  0.00000
2284 354139.700  -2169643.7313   4385194.7067   4078205.5592   1   4   0.0323   0.0243   0.0541  -0.0250  -0.0157  -0.0176  -0.30    0.0    0.00000    0.00000    0.00000   0.00000  0.00000  0.00000  0.00000  0.00000  0.00000
2284 354139.800  -2169643.7515   4385194.6431   4078205.5487   1   4   0.0323   0.0242   0.0540  -0.0250  -0.0156  -0.0176  -0.20    0.0    0.00000    0.00000    0.00000   0.00000  0.00000  0.00000  0.00000  0.00000  0.00000
2284 354139.900  -2169643.8144   4385194.6387   4078205.5726   1   4   0.0322   0.0242   0.0540  -0.0249  -0.0156  -0.0176  -0.10    0.0    0.00000    0.00000    0.00000   0.00000  0.00000  0.00000  0.00000  0.00000  0.00000
2284 354140.000  -2169643.9259   4385194.6730   4078205.5993   1   4   0.0322   0.0242   0.0540  -0.0249  -0.0156  -0.0176   0.00    0.0    0.00000    0.00000    0.00000   0.00000  0.00000  0.00000  0.00000  0.00000  0.00000
2284 354140.100  -2169643.9727   4385194.6605   4078205.5395   1   4   0.0322   0.0242   0.0540  -0.0250  -0.0156  -0.0176   0.10    0.0    0.00000    0.00000    0.00000   0.00000  0.00000  0.00000  0.00000  0.00000  0.00000
2284 354140.200  -2169643.9811   4385194.6293   4078205.5258   1   4   0.0323   0.0242   0.0540  -0.0250  -0.0156  -0.0176   0.20    0.0    0.00000    0.00000    0.00000   0.00000  0.00000  0.00000  0.00000  0.00000  0.00000
2284 354140.300  -2169643.9723   4385194.5677   4078205.5709   1   5   0.0323   0.0242   0.0541  -0.0250  -0.0157  -0.0176   0.30    0.0    0.00000    0.00000    0.00000   0.00000  0.00000  0.00000  0.00000  0.00000  0.00000
2284 354140.400  -2169644.0036   4385194.5283   4078205.5019   1   5   0.0291   0.0227   0.0538  -0.0225  -0.0139  -0.0200   0.40    0.0    0.00000    0.00000    0.00000   0.00000  0.00000  0.00000  0.00000  0.00000  0.00000
2284 354140.500  -2169644.1877   4385194.5578   4078205.4873   1   5   0.0279   0.0222   0.0538  -0.0216  -0.0133  -0.0208   0.50    0.0    0.00000    0.00000    0.00000   0.00000  0.00000  0.00000  0.00000  0.00000  0.00000
2284 354140.600  -2169644.3312   4385194.5081   4078205.5490   1   5   0.0273   0.0219   0.0536  -0.0211  -0.0129  -0.0211  -0.40    0.0    0.00000    0.00000    0.00000   0.00000  0.00000  0.00000  0.00000  0.00000  0.00000
2284 354140.700  -2169644.3839   4385194.3974   4078205.6291   1   5   0.0269   0.0217   0.0535  -0.0208  -0.0127  -0.0213  -0.30    0.0    0.00000    0.00000    0.00000   0.00000  0.00000  0.00000  0.00000  0.00000  0.00000
2284 354140.800  -2169644.3975   4385194.3125   4078205.5700   1   5   0.0253   0.0210   0.0533  -0.0196  -0.0117  -0.0221  -0.20    0.0    0.00000    0.00000    0.00000   0.00000  0.00000  0.00000  0.00000  0.00000  0.00000
2284 354140.900  -2169644.5229   4385194.2745   4078205.5660   1   5   0.0253   0.0210   0.0532  -0.0195  -0.0117  -0.0221  -0.10    0.0    0.00000    0.00000    0.00000   0.00000  0.00000  0.00000  0.00000  0.00000  0.00000
2284 354141.000  -2169644.6551   4385194.2429   4078205.5078   1   5   0.0253   0.0210   0.0532  -0.0195  -0.0117  -0.0221   0.00    0.0    0.00000    0.00000    0.00000   0.00000  0.00000  0.00000  0.00000  0.00000  0.00000
2284 354141.100  -2169644.7971   4385194.1627   4078205.5111   1   5   0.0253   0.0210   0.0533  -0.0195  -0.0117  -0.0221   0.10    0.0    0.00000    0.00000    0.00000   0.00000  0.00000  0.00000  0.00000  0.00000  0.00000
2284 354141.200  -2169644.9702   4385194.0824   4078205.5492   1   5   0.0253   0.0210   0.0533  -0.0196  -0.0117  -0.0221   0.20    0.0    0.00000    0.00000    0.00000   0.00000  0.00000  0.00000  0.00000  0.00000  0.00000
2284 354141.300  -2169645.1316   4385193.9972   4078205.5878   1   5   0.0253   0.0210   0.0533  -0.0196  -0.0118  -0.0221   0.30    0.0    0.00000    0.00000    0.00000   0.00000  0.00000  0.00000  0.00000  0.00000  0.00000
2284 354141.400  -2169645.2256   4385193.9088   4078205.6131   1   5   0.0254   0.0211   0.0534  -0.0196  -0.0118  -0.0221   0.40    0.0    0.00000    0.00000    0.00000   0.00000  0.00000  0.00000  0.00000  0.00000  0.00000
2284 354141.500  -2169645.3005   4385193.9108   4078205.5927   1   5   0.0254   0.0211   0.0535  -0.0197  -0.0119  -0.0222   0.50    0.0    0.00000    0.00000    0.00000   0.00000  0.00000  0.00000  0.00000  0.00000  0.00000
2284 354141.600  -2169645.3227   4385193.8815   4078205.5420   1   5   0.0254   0.0211   0.0534  -0.0196  -0.0118  -0.0221  -0.40    0.0    0.00000    0.00000    0.00000   0.00000  0.00000  0.00000  0.00000  0.00000  0.00000
2284 354141.700  -2169645.4077   4385193.8331   4078205.5690   1   5   0.0253   0.0210   0.0533  -0.0196  -0.0118  -0.0221  -0.30    0.0    0.00000    0.00000    0.00000   0.00000  0.00000  0.00000  0.00000  0.00000  0.00000
2284 354141.800  -2169645.5334   4385193.7924   4078205.5594   1   5   0.0253   0.0210   0.0533  -0.0196  -0.0117  -0.0221  -0.20    0.0    0.00000    0.00000    0.00000   0.00000  0.00000  0.00000  0.00000  0.00000  0.00000
2284 354141.900  -2169645.6350   4385193.7739   4078205.5791   1   5   0.0253   0.0210   0.0533  -0.0195  -0.0117  -0.0221  -0.10    0.0    0.00000    0.00000    0.00000   0.00000  0.00000  0.00000  0.00000  0.00000  0.00000
2284 354142.000  -2169645.5025   4385193.5623   4078205.0229   1   5   0.0253   0.0210   0.0532  -0.0195  -0.0117  -0.0221   0.00    0.0    0.00000    0.00000    0.00000   0.00000  0.00000  0.00000  0.00000  0.00000  0.00000
2284 354142.100  -2169645.4874   4385193.5204   4078205.0022   1   5   0.0253   0.0210   0.0533  -0.0195  -0.0117  -0.0221   0.10    0.0    0.00000    0.00000    0.00000   0.00000  0.00000  0.00000  0.00000  0.00000  0.00000
2284 354142.200  -2169645.5522   4385193.4867   4078205.0434   1   5   0.0253   0.0210   0.0533  -0.0195  -0.0117  -0.0221   0.20    0.0    0.00000    0.00000    0.00000   0.00000  0.00000  0.00000  0.00000  0.00000  0.00000
2284 354142.300  -2169645.6296   4385193.4424   4078205.0167   1   5   0.0253   0.0210   0.0533  -0.0196  -0.0118  -0.0221   0.30    0.0    0.00000    0.00000    0.00000   0.00000  0.00000  0.00000  0.00000  0.00000  0.00000
2284 354142.400  -2169645.6952   4385193.3601   4078205.0468   1   5   0.0254   0.0211   0.0534  -0.0196  -0.0118  -0.0222   0.40    0.0    0.00000    0.00000    0.00000   0.00000  0.00000  0.00000  0.00000  0.00000  0.00000
2284 354142.500  -2169645.8265   4385193.2568   4078205.1733   1   5   0.0254   0.0211   0.0535  -0.0197  -0.0119  -0.0222   0.50    0.0    0.00000    0.00000    0.00000   0.00000  0.00000  0.00000  0.00000  0.00000  0.00000
2284 354142.600  -2169645.9726   4385193.1713   4078205.1644   1   5   0.0254   0.0211   0.0534  -0.0196  -0.0118  -0.0222  -0.40    0.0    0.00000    0.00000    0.00000   0.00000  0.00000  0.00000  0.00000  0.00000  0.00000
2284 354142.700  -2169646.1248   4385193.1059   4078205.1993   1   5   0.0253   0.0210   0.0534  -0.0196  -0.0117  -0.0221  -0.30    0.0    0.00000    0.00000    0.00000   0.00000  0.00000  0.00000  0.00000  0.00000  0.00000
2284 354142.800  -2169646.1812   4385192.9804   4078205.2605   1   5   0.0253   0.0210   0.0533  -0.0196  -0.0117  -0.0221  -0.20    0.0    0.00000    0.00000    0.00000   0.00000  0.00000  0.00000  0.00000  0.00000  0.00000
2284 354142.900  -2169646.3062   4385192.8752   4078205.3276   1   5   0.0253   0.0210   0.0533  -0.0195  -0.0117  -0.0221  -0.10    0.0    0.00000    0.00000    0.00000   0.00000  0.00000  0.00000  0.00000  0.00000  0.00000
2284 354143.000  -2169646.4410   4385192.7579   4078205.3131   1   5   0.0253   0.0210   0.0533  -0.0195  -0.0117  -0.0221   0.00    0.0    0.00000    0.00000    0.00000   0.00000  0.00000  0.00000  0.00000  0.00000  0.00000
2284 354143.100  -2169646.6001   4385192.6561   4078205.3409   1   5   0.0253   0.0210   0.0533  -0.0195  -0.0117  -0.0221   0.10    0.0    0.00000    0.00000    0.00000   0.00000  0.00000  0.00000  0.00000  0.00000  0.00000
2284 354143.200  -2169646.7454   4385192.5168   4078205.4814   1   5   0.0253   0.0210   0.0533  -0.0195  -0.0117  -0.0221   0.20    0.0    0.00000    0.00000    0.00000   0.00000  0.00000  0.00000  0.00000  0.00000  0.00000
2284 354143.300  -2169646.8577   4385192.3679   4078205.5456   1   5   0.0253   0.0210   0.0534  -0.0196  -0.0117  -0.0221   0.30    0.0    0.00000    0.00000    0.00000   0.00000  0.00000  0.00000  0.00000  0.00000  0.00000
2284 354143.400  -2169647.0228   4385192.2137   4078205.6877   1   5   0.0254   0.0211   0.0534  -0.0196  -0.0118  -0.0222   0.40    0.0    0.00000    0.00000    0.00000   0.00000  0.00000  0.00000  0.00000  0.00000  0.00000
2284 354143.500  -2169647.1230   4385192.0343   4078205.8224   1   5   0.0254   0.0211   0.0535  -0.0197  -0.0119  -0.0222   0.50    0.0    0.00000    0.00000    0.00000   0.00000  0.00000  0.00000  0.00000  0.00000  0.00000
2284 354143.600  -2169647.2051   4385191.8811   4078205.8879   1   5   0.0254   0.0211   0.0534  -0.0196  -0.0118  -0.0222  -0.40    0.0    0.00000    0.00000    0.00000   0.00000  0.00000  0.00000  0.00000  0.00000  0.00000
2284 354143.700  -2169647.3181   4385191.7297   4078205.9971   1   5   0.0253   0.0210   0.0534  -0.0196  -0.0117  -0.0221  -0.30    0.0    0.00000    0.00000    0.00000   0.00000  0.00000  0.00000  0.00000  0.00000  0.00000
2284 354143.800  -2169647.3925   4385191.5754   4078206.1431   1   5   0.0253   0.0210   0.0533  -0.0196  -0.0117  -0.0221  -0.20    0.0    0.00000    0.00000    0.00000   0.00000  0.00000  0.00000  0.00000  0.00000  0.00000
2284 354143.900  -2169647.4649   4385191.4317   4078206.3035   1   5   0.0253   0.0210   0.0533  -0.0195  -0.0116  -0.0221  -0.10    0.0    0.00000    0.00000    0.00000   0.00000  0.00000  0.00000  0.00000  0.00000  0.00000
2284 354144.000  -2169647.4933   4385191.3391   4078206.3112   1   5   0.0253   0.0210   0.0533  -0.0195  -0.0116  -0.0221   0.00    0.0    0.00000    0.00000    0.00000   0.00000  0.00000  0.00000  0.00000  0.00000  0.00000
2284 354144.100  -2169647.5265   4385191.2879   4078206.3490   1   5   0.0253   0.0210   0.0533  -0.0195  -0.0116  -0.0221   0.10    0.0    0.00000    0.00000    0.00000   0.00000  0.00000  0.00000  0.00000  0.00000  0.00000
2284 354144.200  -2169647.5538   4385191.2190   4078206.4040   1   5   0.0253   0.0210   0.0533  -0.0195  -0.0117  -0.0221   0.20    0.0    0.00000    0.00000    0.00000   0.00000  0.00000  0.00000  0.00000  0.00000  0.00000
2284 354144.300  -2169647.6050   4385191.1551   4078206.4062   1   5   0.0253   0.0210   0.0534  -0.0196  -0.0117  -0.0222   0.30    0.0    0.00000    0.00000    0.00000   0.00000  0.00000  0.00000  0.00000  0.00000  0.00000
2284 354144.400  -2169647.6805   4385191.0776   4078206.5106   1   5   0.0254   0.0211   0.0534  -0.0196  -0.0118  -0.0222   0.40    0.0    0.00000    0.00000    0.00000   0.00000  0.00000  0.00000  0.00000  0.00000  0.00000
2284 354144.500  -2169647.7766   4385191.0298   4078206.5510   1   5   0.0254   0.0211   0.0535  -0.0196  -0.0119  -0.0222   0.50    0.0    0.00000    0.00000    0.00000   0.00000  0.00000  0.00000  0.00000  0.00000  0.00000
2284 354144.600  -2169647.8577   4385190.9651   4078206.5350   1   5   0.0254   0.0211   0.0534  -0.0196  -0.0118  -0.0222  -0.40    0.0    0.00000    0.00000    0.00000   0.00000  0.00000  0.00000  0.00000  0.00000  0.00000
2284 354144.700  -2169647.9747   4385190.9202   4078206.4435   1   5   0.0253   0.0210   0.0534  -0.0196  -0.0117  -0.0222  -0.30    0.0    0.00000    0.00000    0.00000   0.00000  0.00000  0.00000  0.00000  0.00000  0.00000
2284 354144.800  -2169648.1186   4385190.8499   4078206.5057   1   5   0.0253   0.0210   0.0533  -0.0195  -0.0117  -0.0221  -0.20    0.0    0.00000    0.00000    0.00000   0.00000  0.00000  0.00000  0.00000  0.00000  0.00000
2284 354144.900  -2169648.2290   4385190.7818   4078206.5129   1   5   0.0253   0.0210   0.0533  -0.0195  -0.0116  -0.0221  -0.10    0.0    0.00000    0.00000    0.00000   0.00000  0.00000  0.00000  0.00000  0.00000  0.00000
2284 354145.000  -2169648.3302   4385190.7704   4078206.5007   1   5   0.0253   0.0210   0.0533  -0.0195  -0.0116  -0.0221   0.00    0.0    0.00000    0.00000    0.00000   0.00000  0.00000  0.00000  0.00000  0.00000  0.00000
2284 354145.100  -2169648.3665   4385190.7562   4078206.4915   1   5   0.0253   0.0210   0.0533  -0.0195  -0.0116  -0.0221   0.10    0.0    0.00000    0.00000    0.00000   0.00000  0.00000  0.00000  0.00000  0.00000  0.00000
2284 354145.200  -2169648.3827   4385190.7211   4078206.4870   1   5   0.0253   0.0210   0.0533  -0.0195  -0.0116  -0.0222   0.20    0.0    0.00000    0.00000    0.00000   0.00000  0.00000  0.00000  0.00000  0.00000  0.00000
2284 354145.300  -2169648.3937   4385190.7079   4078206.4931   1   5   0.0253   0.0210   0.0534  -0.0196  -0.0117  -0.0222   0.30    0.0    0.00000    0.00000    0.00000   0.00000  0.00000  0.00000  0.00000  0.00000  0.00000
2284 354145.400  -2169648.3977   4385190.7122   4078206.4864   1   5   0.0254   0.0211   0.0535  -0.0196  -0.0118  -0.0222   0.40    0.0    0.00000    0.00000    0.00000   0.00000  0.00000  0.00000  0.00000  0.00000  0.00000
2284 354145.500  -2169648.4107   4385190.7243   4078206.4832   1   5   0.0254   0.0211   0.0536  -0.0197  -0.0118  -0.0222   0.50    0.0    0.00000    0.00000    0.00000   0.00000  0.00000  0.00000  0.00000  0.00000  0.00000
2284 354145.600  -2169648.4230   4385190.6851   4078206.5185   1   5   0.0254   0.0211   0.0535  -0.0196  -0.0117  -0.0222  -0.40    0.0    0.00000    0.00000    0.00000   0.00000  0.00000  0.00000  0.00000  0.00000  0.00000
2284 354145.700  -2169648.4956   4385190.6373   4078206.5168   1   5   0.0253   0.0210   0.0534  -0.0196  -0.0117  -0.0222  -0.30    0.0    0.00000    0.00000    0.00000   0.00000  0.00000  0.00000  0.00000  0.00000  0.00000
2284 354145.800  -2169648.6350   4385190.5912   4078206.6051   1   5   0.0253   0.0210   0.0533  -0.0195  -0.0116  -0.0222  -0.20    0.0    0.00000    0.00000    0.00000   0.00000  0.00000  0.00000  0.00000  0.00000  0.00000
2284 354145.900  -2169648.7004   4385190.4959   4078206.6185   1   5   0.0253   0.0210   0.0533  -0.0195  -0.0116  -0.0222  -0.10    0.0    0.00000    0.00000    0.00000   0.00000  0.00000  0.00000  0.00000  0.00000  0.00000
2284 354146.000  -2169648.7743   4385190.4251   4078206.6831   1   5   0.0253   0.0210   0.0533  -0.0195  -0.0116  -0.0222   0.00    0.0    0.00000    0.00000    0.00000   0.00000  0.00000  0.00000  0.00000  0.00000  0.00000
2284 354146.100  -2169648.7889   4385190.3491   4078206.6754   1   5   0.0253   0.0210   0.0533  -0.0195  -0.0116  -0.0222   0.10    0.0    0.00000    0.00000    0.00000   0.00000  0.00000  0.00000  0.00000  0.00000  0.00000
2284 354146.200  -2169648.8345   4385190.3163   4078206.7002   1   5   0.0253   0.0210   0.0533  -0.0195  -0.0116  -0.0222   0.20    0.0    0.00000    0.00000    0.00000   0.00000  0.00000  0.00000  0.00000  0.00000  0.00000
2284 354146.300  -2169648.9049   4385190.3094   4078206.7494   1   6   0.0253   0.0210   0.0533  -0.0196  -0.0117  -0.0222   0.30    0.0    0.00000    0.00000    0.00000   0.00000  0.00000  0.00000  0.00000  0.00000  0.00000
2284 354146.400  -2169648.9657   4385190.2635   4078206.7802   1   6   0.0234   0.0210   0.0400  -0.0197  -0.0113  -0.0120   0.40    0.0    0.00000    0.00000    0.00000   0.00000  0.00000  0.00000  0.00000  0.00000  0.00000
2284 354146.500  -2169649.0379   4385190.2446   4078206.7860   1   6   0.0227   0.0211   0.0345  -0.0197  -0.0112  -0.0052   0.50    0.0    0.00000    0.00000    0.00000   0.00000  0.00000  0.00000  0.00000  0.00000  0.00000
2284 354146.600  -2169649.1183   4385190.1839   4078206.7505   1   6   0.0223   0.0211   0.0313  -0.0197  -0.0111   0.0053  -0.40    0.0    0.00000    0.00000    0.00000   0.00000  0.00000  0.00000  0.00000  0.00000  0.00000
2284 354146.700  -2169649.2092   4385190.0650   4078206.7387   1   7   0.0221   0.0210   0.0292  -0.0197  -0.0110   0.0079  -0.30    0.0    0.00000    0.00000    0.00000   0.00000  0.00000  0.00000  0.00000  0.00000  0.00000
2284 354146.800  -2169649.3360   4385189.9808   4078206.8210   1   7   0.0165   0.0172   0.0180  -0.0151  -0.0071   0.0114  -0.20    0.0    0.00000    0.00000    0.00000   0.00000  0.00000  0.00000  0.00000  0.00000  0.00000
2284 354146.900  -2169649.4703   4385189.9070   4078206.8734   1   7   0.0142   0.0155   0.0148  -0.0129  -0.0016   0.0086  -0.10    0.0    0.00000    0.00000    0.00000   0.00000  0.00000  0.00000  0.00000  0.00000  0.00000
2284 354147.000  -2169649.6152   4385189.8255   4078206.8773   1   7   0.0130   0.0146   0.0135  -0.0116   0.0040   0.0071   0.00    0.0    0.00000    0.00000    0.00000   0.00000  0.00000  0.00000  0.00000  0.00000  0.00000
2284 354147.100  -2169649.7583   4385189.7170   4078206.8958   1   7   0.0123   0.0140   0.0127  -0.0109   0.0052   0.0061   0.10    0.0    0.00000    0.00000    0.00000   0.00000  0.00000  0.00000  0.00000  0.00000  0.00000
2284 354147.200  -2169649.9152   4385189.6021   4078206.9134   1   7   0.0090   0.0117   0.0119  -0.0073   0.0075   0.0023   0.20    0.0    0.00000    0.00000    0.00000   0.00000  0.00000  0.00000  0.00000  0.00000  0.00000
2284 354147.300  -2169650.1353   4385189.5044   4078206.9027   1   7   0.0099   0.0122   0.0172  -0.0083   0.0039   0.0077   0.30    0.0    0.00000    0.00000    0.00000   0.00000  0.00000  0.00000  0.00000  0.00000  0.00000
2284 354147.400  -2169650.3634   4385189.3819   4078206.9207   1   7   0.0099   0.0122   0.0172  -0.0083   0.0038   0.0077   0.40    0.0    0.00000    0.00000    0.00000   0.00000  0.00000  0.00000  0.00000  0.00000  0.00000
2284 354147.500  -2169650.6087   4385189.2663   4078206.9233   1   7   0.0087   0.0116   0.0102  -0.0071   0.0082  -0.0026   0.50    0.0    0.00000    0.00000    0.00000   0.00000  0.00000  0.00000  0.00000  0.00000  0.00000
2284 354147.600  -2169650.8156   4385189.1511   4078206.9303   1   7   0.0087   0.0116   0.0102  -0.0071   0.0081  -0.0029  -0.40    0.0    0.00000    0.00000    0.00000   0.00000  0.00000  0.00000  0.00000  0.00000  0.00000
2284 354147.700  -2169650.9858   4385189.0751   4078206.9042   1   7   0.0087   0.0116   0.0102  -0.0071   0.0081  -0.0029  -0.30    0.0    0.00000    0.00000    0.00000   0.00000  0.00000  0.00000  0.00000  0.00000  0.00000
2284 354147.800  -2169651.1481   4385189.0132   4078206.8734   1   7   0.0087   0.0116   0.0102  -0.0071   0.0081  -0.0028  -0.20    0.0    0.00000    0.00000    0.00000   0.00000  0.00000  0.00000  0.00000  0.00000  0.00000
2284 354147.900  -2169651.3436   4385188.9392   4078206.8793   1   7   0.0087   0.0116   0.0102  -0.0071   0.0081  -0.0029  -0.10    0.0    0.00000    0.00000    0.00000   0.00000  0.00000  0.00000  0.00000  0.00000  0.00000
2284 354148.000  -2169651.5562   4385188.8373   4078206.8860   1   7   0.0087   0.0116   0.0102  -0.0070   0.0081  -0.0027   0.00    0.0    0.00000    0.00000    0.00000   0.00000  0.00000  0.00000  0.00000  0.00000  0.00000
2284 354148.100  -2169651.7893   4385188.7409   4078206.8538   1   7   0.0099   0.0122   0.0171  -0.0083   0.0038   0.0076   0.10    0.0    0.00000    0.00000    0.00000   0.00000  0.00000  0.00000  0.00000  0.00000  0.00000
2284 354148.200  -2169651.9295   4385188.6025   4078206.9428   1   7   0.0087   0.0116   0.0102  -0.0071   0.0081  -0.0030   0.20    0.0    0.00000    0.00000    0.00000   0.00000  0.00000  0.00000  0.00000  0.00000  0.00000
2284 354148.300  -2169652.1715   4385188.5350   4078206.8611   1   7   0.0099   0.0122   0.0172  -0.0082   0.0039   0.0077   0.30    0.0    0.00000    0.00000    0.00000   0.00000  0.00000  0.00000  0.00000  0.00000  0.00000
2284 354148.400  -2169652.3297   4385188.3938   4078206.9713   1   7   0.0087   0.0116   0.0102  -0.0072   0.0081  -0.0031   0.40    0.0    0.00000    0.00000    0.00000   0.00000  0.00000  0.00000  0.00000  0.00000  0.00000
2284 354148.500  -2169652.5611   4385188.2799   4078206.9564   1   7   0.0087   0.0116   0.0102  -0.0071   0.0081  -0.0027   0.50    0.0    0.00000    0.00000    0.00000   0.00000  0.00000  0.00000  0.00000  0.00000  0.00000
2284 354148.600  -2169652.7887   4385188.1989   4078206.8592   1   7   0.0099   0.0122   0.0172  -0.0083   0.0038   0.0077  -0.40    0.0    0.00000    0.00000    0.00000   0.00000  0.00000  0.00000  0.00000  0.00000  0.00000
2284 354148.700  -2169653.0118   4385188.0900   4078206.8731   1   7   0.0099   0.0122   0.0172  -0.0083   0.0039   0.0076  -0.30    0.0    0.00000    0.00000    0.00000   0.00000  0.00000  0.00000  0.00000  0.00000  0.00000
2284 354148.800  -2169653.2279   4385187.9928   4078206.8748   1   7   0.0099   0.0122   0.0171  -0.0083   0.0039   0.0076  -0.20    0.0    0.00000    0.00000    0.00000   0.00000  0.00000  0.00000  0.00000  0.00000  0.00000
2284 354148.900  -2169653.4478   4385187.9004   4078206.8962   1   7   0.0099   0.0122   0.0171  -0.0083   0.0039   0.0076  -0.10    0.0    0.00000    0.00000    0.00000   0.00000  0.00000  0.00000  0.00000  0.00000  0.00000
2284 354149.000  -2169653.6550   4385187.8181   4078206.8713   1   7   0.0099   0.0122   0.0171  -0.0083   0.0038   0.0076   0.00    0.0    0.00000    0.00000    0.00000   0.00000  0.00000  0.00000  0.00000  0.00000  0.00000
2284 354149.100  -2169653.8643   4385187.7288   4078206.8262   1   6   0.0211   0.0210   0.0188  -0.0196  -0.0107   0.0142   0.10    0.0    0.00000    0.00000    0.00000   0.00000  0.00000  0.00000  0.00000  0.00000  0.00000
2284 354149.200  -2169654.0031   4385187.6119   4078206.8812   1   6   0.0211   0.0210   0.0188  -0.0197  -0.0108   0.0142   0.20    0.0    0.00000    0.00000    0.00000   0.00000  0.00000  0.00000  0.00000  0.00000  0.00000
2284 354149.300  -2169654.1761   4385187.5460   4078206.8449   1   6   0.0212   0.0210   0.0188  -0.0197  -0.0108   0.0142   0.30    0.0    0.00000    0.00000    0.00000   0.00000  0.00000  0.00000  0.00000  0.00000  0.00000
2284 354149.400  -2169654.3733   4385187.4390   4078206.9192   1   6   0.0212   0.0210   0.0188  -0.0197  -0.0108   0.0142   0.40    0.0    0.00000    0.00000    0.00000   0.00000  0.00000  0.00000  0.00000  0.00000  0.00000
2284 354149.500  -2169654.5884   4385187.2961   4078206.9186   1   6   0.0213   0.0211   0.0189  -0.0198  -0.0108   0.0143   0.50    0.0    0.00000    0.00000    0.00000   0.00000  0.00000  0.00000  0.00000  0.00000  0.00000
2284 354149.600  -2169654.8753   4385187.1816   4078206.9129   1   6   0.0212   0.0210   0.0188  -0.0197  -0.0108   0.0142  -0.40    0.0    0.00000    0.00000    0.00000   0.00000  0.00000  0.00000  0.00000  0.00000  0.00000
2284 354149.700  -2169655.1394   4385187.0425   4078206.8751   1   6   0.0212   0.0210   0.0188  -0.0197  -0.0108   0.0142  -0.30    0.0    0.00000    0.00000    0.00000   0.00000  0.00000  0.00000  0.00000  0.00000  0.00000
2284 354149.800  -2169655.3645   4385186.8798   4078206.9058   1   6   0.0212   0.0210   0.0188  -0.0197  -0.0108   0.0141  -0.20    0.0    0.00000    0.00000    0.00000   0.00000  0.00000  0.00000  0.00000  0.00000  0.00000
2284 354149.900  -2169655.6089   4385186.7510   4078206.9243   1   6   0.0211   0.0210   0.0188  -0.0196  -0.0107   0.0142  -0.10    0.0    0.00000    0.00000    0.00000   0.00000  0.00000  0.00000  0.00000  0.00000  0.00000
2284 354150.000  -2169655.8737   4385186.6650   4078206.9109   1   6   0.0211   0.0209   0.0187  -0.0196  -0.0107   0.0142   0.00    0.0    0.00000    0.00000    0.00000   0.00000  0.00000  0.00000  0.00000  0.00000  0.00000
2284 354150.100  -2169656.0749   4385186.5235   4078206.9424   1   6   0.0211   0.0210   0.0187  -0.0197  -0.0107   0.0141   0.10    0.0    0.00000    0.00000    0.00000   0.00000  0.00000  0.00000  0.00000  0.00000  0.00000
2284 354150.200  -2169656.2936   4385186.4206   4078206.9330   1   6   0.0211   0.0210   0.0188  -0.0197  -0.0107   0.0142   0.20    0.0    0.00000    0.00000    0.00000   0.00000  0.00000  0.00000  0.00000  0.00000  0.00000
2284 354150.300  -2169656.5148   4385186.3362   4078206.8867   1   6   0.0212   0.0210   0.0188  -0.0197  -0.0108   0.0142   0.30    0.0    0.00000    0.00000    0.00000   0.00000  0.00000  0.00000  0.00000  0.00000  0.00000
2284 354150.400  -2169656.6982   4385186.2094   4078206.8986   1   6   0.0212   0.0210   0.0188  -0.0197  -0.0108   0.0143   0.40    0.0    0.00000    0.00000    0.00000   0.00000  0.00000  0.00000  0.00000  0.00000  0.00000
2284 354150.500  -2169656.8921   4385186.1184   4078206.9062   1   6   0.0213   0.0211   0.0189  -0.0198  -0.0108   0.0143   0.50    0.0    0.00000    0.00000    0.00000   0.00000  0.00000  0.00000  0.00000  0.00000  0.00000
2284 354150.600  -2169657.0703   4385186.0448   4078206.9326   1   6   0.0212   0.0210   0.0188  -0.0197  -0.0108   0.0142  -0.40    0.0    0.00000    0.00000    0.00000   0.00000  0.00000  0.00000  0.00000  0.00000  0.00000
2284 354150.700  -2169657.2580   4385185.9586   4078206.9250   1   6   0.0212   0.0210   0.0188  -0.0197  -0.0108   0.0142  -0.30    0.0    0.00000    0.00000    0.00000   0.00000  0.00000  0.00000  0.00000  0.00000  0.00000
2284 354150.800  -2169657.4165   4385185.8434   4078206.9228   1   6   0.0212   0.0210   0.0188  -0.0197  -0.0108   0.0141  -0.20    0.0    0.00000    0.00000    0.00000   0.00000  0.00000  0.00000  0.00000  0.00000  0.00000
2284 354150.900  -2169657.6047   4385185.7756   4078206.8900   1   6   0.0211   0.0210   0.0187  -0.0196  -0.0107   0.0141  -0.10    0.0    0.00000    0.00000    0.00000   0.00000  0.00000  0.00000  0.00000  0.00000  0.00000
2284 354151.000  -2169657.7744   4385185.7062   4078206.8746   1   6   0.0211   0.0209   0.0187  -0.0196  -0.0107   0.0142   0.00    0.0    0.00000    0.00000    0.00000   0.00000  0.00000  0.00000  0.00000  0.00000  0.00000
2284 354151.100  -2169657.9001   4385185.6179   4078206.8975   1   6   0.0211   0.0209   0.0187  -0.0196  -0.0107   0.0142   0.10    0.0    0.00000    0.00000    0.00000   0.00000  0.00000  0.00000  0.00000  0.00000  0.00000
2284 354151.200  -2169658.0187   4385185.5546   4078206.9058   1   6   0.0211   0.0210   0.0188  -0.0197  -0.0107   0.0142   0.20    0.0    0.00000    0.00000    0.00000   0.00000  0.00000  0.00000  0.00000  0.00000  0.00000
2284 354151.300  -2169658.1512   4385185.5128   4078206.8858   1   6   0.0212   0.0210   0.0188  -0.0197  -0.0108   0.0142   0.30    0.0    0.00000    0.00000    0.00000   0.00000  0.00000  0.00000  0.00000  0.00000  0.00000
2284 354151.400  -2169658.2617   4385185.4393   4078206.9137   1   6   0.0212   0.0210   0.0188  -0.0197  -0.0108   0.0142   0.40    0.0    0.00000    0.00000    0.00000   0.00000  0.00000  0.00000  0.00000  0.00000  0.00000
2284 354151.500  -2169658.4036   4385185.3801   4078206.9003   1   6   0.0213   0.0211   0.0189  -0.0198  -0.0108   0.0142   0.50    0.0    0.00000    0.00000    0.00000   0.00000  0.00000  0.00000  0.00000  0.00000  0.00000
2284 354151.600  -2169658.5772   4385185.3327   4078206.8850   1   6   0.0212   0.0210   0.0188  -0.0197  -0.0108   0.0142  -0.40    0.0    0.00000    0.00000    0.00000   0.00000  0.00000  0.00000  0.00000  0.00000  0.00000
2284 354151.700  -2169658.7128   4385185.2612   4078206.9137   1   6   0.0212   0.0210   0.0188  -0.0197  -0.0108   0.0142  -0.30    0.0    0.00000    0.00000    0.00000   0.00000  0.00000  0.00000  0.00000  0.00000  0.00000
2284 354151.800  -2169658.8075   4385185.1651   4078206.9146   1   6   0.0211   0.0209   0.0188  -0.0197  -0.0107   0.0142  -0.20    0.0    0.00000    0.00000    0.00000   0.00000  0.00000  0.00000  0.00000  0.00000  0.00000
2284 354151.900  -2169658.9722   4385185.1411   4078206.8664   1   6   0.0211   0.0209   0.0188  -0.0196  -0.0107   0.0142  -0.10    0.0    0.00000    0.00000    0.00000   0.00000  0.00000  0.00000  0.00000  0.00000  0.00000
2284 354152.000  -2169659.0520   4385185.0430   4078206.8952   1   6   0.0211   0.0209   0.0187  -0.0196  -0.0107   0.0142   0.00    0.0    0.00000    0.00000    0.00000   0.00000  0.00000  0.00000  0.00000  0.00000  0.00000
2284 354152.100  -2169659.1972   4385184.9688   4078206.8976   1   6   0.0211   0.0210   0.0187  -0.0196  -0.0107   0.0142   0.10    0.0    0.00000    0.00000    0.00000   0.00000  0.00000  0.00000  0.00000  0.00000  0.00000
2284 354152.200  -2169659.3485   4385184.9110   4078206.9024   1   6   0.0211   0.0210   0.0188  -0.0196  -0.0107   0.0142   0.20    0.0    0.00000    0.00000    0.00000   0.00000  0.00000  0.00000  0.00000  0.00000  0.00000
2284 354152.300  -2169659.5001   4385184.8517   4078206.8630   1   6   0.0212   0.0210   0.0188  -0.0197  -0.0108   0.0142   0.30    0.0    0.00000    0.00000    0.00000   0.00000  0.00000  0.00000  0.00000  0.00000  0.00000
2284 354152.400  -2169659.6174   4385184.7680   4078206.8884   1   6   0.0212   0.0210   0.0188  -0.0197  -0.0108   0.0142   0.40    0.0    0.00000    0.00000    0.00000   0.00000  0.00000  0.00000  0.00000  0.00000  0.00000
2284 354152.500  -2169659.7518   4385184.6900   4078206.8829   1   6   0.0213   0.0211   0.0189  -0.0198  -0.0108   0.0143   0.50    0.0    0.00000    0.00000    0.00000   0.00000  0.00000  0.00000  0.00000  0.00000  0.00000
2284 354152.600  -2169659.9261   4385184.6446   4078206.8693   1   6   0.0212   0.0210   0.0188  -0.0197  -0.0108   0.0142  -0.40    0.0    0.00000    0.00000    0.00000   0.00000  0.00000  0.00000  0.00000  0.00000  0.00000
2284 354152.700  -2169660.0790   4385184.5696   4078206.8691   1   6   0.0212   0.0210   0.0188  -0.0197  -0.0108   0.0142  -0.30    0.0    0.00000    0.00000    0.00000   0.00000  0.00000  0.00000  0.00000  0.00000  0.00000
2284 354152.800  -2169660.2028   4385184.4837   4078206.8869   1   6   0.0211   0.0209   0.0188  -0.0197  -0.0107   0.0142  -0.20    0.0    0.00000    0.00000    0.00000   0.00000  0.00000  0.00000  0.00000  0.00000  0.00000
2284 354152.900  -2169660.3455   4385184.4159   4078206.8866   1   6   0.0211   0.0209   0.0187  -0.0196  -0.0107   0.0141  -0.10    0.0    0.00000    0.00000    0.00000   0.00000  0.00000  0.00000  0.00000  0.00000  0.00000
2284 354153.000  -2169660.4896   4385184.3358   4078206.8864   1   6   0.0211   0.0209   0.0187  -0.0196  -0.0107   0.0142   0.00    0.0    0.00000    0.00000    0.00000   0.00000  0.00000  0.00000  0.00000  0.00000  0.00000
2284 354153.100  -2169660.6382   4385184.2806   4078206.8875   1   6   0.0211   0.0209   0.0187  -0.0196  -0.0107   0.0142   0.10    0.0    0.00000    0.00000    0.00000   0.00000  0.00000  0.00000  0.00000  0.00000  0.00000
2284 354153.200  -2169660.7479   4385184.2052   4078206.8902   1   6   0.0211   0.0210   0.0188  -0.0197  -0.0107   0.0141   0.20    0.0    0.00000    0.00000    0.00000   0.00000  0.00000  0.00000  0.00000  0.00000  0.00000
2284 354153.300  -2169660.8807   4385184.1580   4078206.8838   1   6   0.0212   0.0210   0.0188  -0.0197  -0.0107   0.0142   0.30    0.0    0.00000    0.00000    0.00000   0.00000  0.00000  0.00000  0.00000  0.00000  0.00000
2284 354153.400  -2169660.9858   4385184.1049   4078206.8667   1   6   0.0212   0.0210   0.0188  -0.0197  -0.0108   0.0142   0.40    0.0    0.00000    0.00000    0.00000   0.00000  0.00000  0.00000  0.00000  0.00000  0.00000
2284 354153.500  -2169661.0809   4385184.0519   4078206.8776   1   6   0.0213   0.0211   0.0188  -0.0198  -0.0108   0.0142   0.50    0.0    0.00000    0.00000    0.00000   0.00000  0.00000  0.00000  0.00000  0.00000  0.00000
2284 354153.600  -2169661.2016   4385184.0131   4078206.8879   1   6   0.0212   0.0210   0.0188  -0.0197  -0.0108   0.0142  -0.40    0.0    0.00000    0.00000    0.00000   0.00000  0.00000  0.00000  0.00000  0.00000  0.00000
2284 354153.700  -2169661.3400   4385183.9371   4078206.9001   1   6   0.0212   0.0210   0.0188  -0.0197  -0.0107   0.0142  -0.30    0.0    0.00000    0.00000    0.00000   0.00000  0.00000  0.00000  0.00000  0.00000  0.00000
2284 354153.800  -2169661.4698   4385183.8562   4078206.9008   1   6   0.0211   0.0209   0.0187  -0.0197  -0.0107   0.0141  -0.20    0.0    0.00000    0.00000    0.00000   0.00000  0.00000  0.00000  0.00000  0.00000  0.00000
2284 354153.900  -2169661.6240   4385183.7924   4078206.8830   1   6   0.0211   0.0209   0.0187  -0.0196  -0.0107   0.0142  -0.10    0.0    0.00000    0.00000    0.00000   0.00000  0.00000  0.00000  0.00000  0.00000  0.00000
2284 354154.000  -2169661.7525   4385183.7241   4078206.9097   1   6   0.0211   0.0209   0.0187  -0.0196  -0.0107   0.0141   0.00    0.0    0.00000    0.00000    0.00000   0.00000  0.00000  0.00000  0.00000  0.00000  0.00000
2284 354154.100  -2169661.8714   4385183.6508   4078206.9158   1   6   0.0211   0.0209   0.0187  -0.0196  -0.0107   0.0141   0.10    0.0    0.00000    0.00000    0.00000   0.00000  0.00000  0.00000  0.00000  0.00000  0.00000
2284 354154.200  -2169661.9801   4385183.5848   4078206.9145   1   6   0.0211   0.0209   0.0188  -0.0196  -0.0107   0.0142   0.20    0.0    0.00000    0.00000    0.00000   0.00000  0.00000  0.00000  0.00000  0.00000  0.00000
2284 354154.300  -2169662.0669   4385183.5357   4078206.9097   1   6   0.0212   0.0210   0.0188  -0.0197  -0.0107   0.0142   0.30    0.0    0.00000    0.00000    0.00000   0.00000  0.00000  0.00000  0.00000  0.00000  0.00000
2284 354154.400  -2169662.1681   4385183.5056   4078206.9023   1   6   0.0212   0.0210   0.0188  -0.0197  -0.0108   0.0142   0.40    0.0    0.00000    0.00000    0.00000   0.00000  0.00000  0.00000  0.00000  0.00000  0.00000
2284 354154.500  -2169662.2489   4385183.4551   4078206.9147   1   6   0.0213   0.0210   0.0188  -0.0198  -0.0108   0.0143   0.50    0.0    0.00000    0.00000    0.00000   0.00000  0.00000  0.00000  0.00000  0.00000  0.00000
2284 354154.600  -2169662.3402   4385183.3973   4078206.9115   1   6   0.0212   0.0210   0.0188  -0.0197  -0.0108   0.0142  -0.40    0.0    0.00000    0.00000    0.00000   0.00000  0.00000  0.00000  0.00000  0.00000  0.00000
2284 354154.700  -2169662.4319   4385183.3355   4078206.9341   1   6   0.0212   0.0210   0.0188  -0.0197  -0.0107   0.0142  -0.30    0.0    0.00000    0.00000    0.00000   0.00000  0.00000  0.00000  0.00000  0.00000  0.00000
2284 354154.800  -2169662.5307   4385183.2814   4078206.9438   1   6   0.0211   0.0209   0.0187  -0.0197  -0.0107   0.0141  -0.20    0.0    0.00000    0.00000    0.00000   0.00000  0.00000  0.00000  0.00000  0.00000  0.00000
2284 354154.900  -2169662.6355   4385183.2416   4078206.9334   1   6   0.0211   0.0209   0.0187  -0.0196  -0.0107   0.0142  -0.10    0.0    0.00000    0.00000    0.00000   0.00000  0.00000  0.00000  0.00000  0.00000  0.00000
2284 354155.000  -2169662.7552   4385183.1952   4078206.9257   1   6   0.0211   0.0209   0.0187  -0.0196  -0.0107   0.0142   0.00    0.0    0.00000    0.00000    0.00000   0.00000  0.00000  0.00000  0.00000  0.00000  0.00000
2284 354155.100  -2169662.8191   4385183.0995   4078206.9666   1   6   0.0211   0.0209   0.0187  -0.0196  -0.0107   0.0142   0.10    0.0    0.00000    0.00000    0.00000   0.00000  0.00000  0.00000  0.00000  0.00000  0.00000
2284 354155.200  -2169662.9515   4385183.0584   4078206.9513   1   6   0.0211   0.0209   0.0188  -0.0196  -0.0107   0.0142   0.20    0.0    0.00000    0.00000    0.00000   0.00000  0.00000  0.00000  0.00000  0.00000  0.00000
2284 354155.300  -2169663.0767   4385183.0029   4078206.9251   1   6   0.0212   0.0210   0.0188  -0.0197  -0.0108   0.0142   0.30    0.0    0.00000    0.00000    0.00000   0.00000  0.00000  0.00000  0.00000  0.00000  0.00000
2284 354155.400  -2169663.1610   4385182.9414   4078206.9640   1   6   0.0212   0.0210   0.0188  -0.0197  -0.0108   0.0142   0.40    0.0    0.00000    0.00000    0.00000   0.00000  0.00000  0.00000  0.00000  0.00000  0.00000
2284 354155.500  -2169663.2709   4385182.8797   4078206.9672   1   6   0.0212   0.0210   0.0188  -0.0198  -0.0108   0.0143   0.50    0.0    0.00000    0.00000    0.00000   0.00000  0.00000  0.00000  0.00000  0.00000  0.00000
2284 354155.600  -2169663.3642   4385182.8102   4078206.9791   1   6   0.0212   0.0210   0.0188  -0.0197  -0.0108   0.0142  -0.40    0.0    0.00000    0.00000    0.00000   0.00000  0.00000  0.00000  0.00000  0.00000  0.00000
2284 354155.700  -2169663.5065   4385182.7694   4078206.9864   1   6   0.0212   0.0210   0.0188  -0.0197  -0.0107   0.0142  -0.30    0.0    0.00000    0.00000    0.00000   0.00000  0.00000  0.00000  0.00000  0.00000  0.00000
2284 354155.800  -2169663.6468   4385182.7003   4078206.9936   1   6   0.0211   0.0209   0.0188  -0.0196  -0.0107   0.0142  -0.20    0.0    0.00000    0.00000    0.00000   0.00000  0.00000  0.00000  0.00000  0.00000  0.00000
2284 354155.900  -2169663.7759   4385182.6602   4078207.0036   1   6   0.0211   0.0209   0.0187  -0.0196  -0.0107   0.0141  -0.10    0.0    0.00000    0.00000    0.00000   0.00000  0.00000  0.00000  0.00000  0.00000  0.00000
2284 354156.000  -2169663.8620   4385182.6084   4078207.0171   1   6   0.0211   0.0209   0.0187  -0.0196  -0.0107   0.0141   0.00    0.0    0.00000    0.00000    0.00000   0.00000  0.00000  0.00000  0.00000  0.00000  0.00000
2284 354156.100  -2169663.9492   4385182.5458   4078207.0110   1   6   0.0211   0.0209   0.0187  -0.0196  -0.0107   0.0142   0.10    0.0    0.00000    0.00000    0.00000   0.00000  0.00000  0.00000  0.00000  0.00000  0.00000
2284 354156.200  -2169664.0596   4385182.5034   4078206.9958   1   6   0.0211   0.0209   0.0187  -0.0196  -0.0107   0.0141   0.20    0.0    0.00000    0.00000    0.00000   0.00000  0.00000  0.00000  0.00000  0.00000  0.00000
2284 354156.300  -2169664.1660   4385182.4642   4078206.9905   1   6   0.0211   0.0210   0.0188  -0.0197  -0.0107   0.0142   0.30    0.0    0.00000    0.00000    0.00000   0.00000  0.00000  0.00000  0.00000  0.00000  0.00000
2284 354156.400  -2169664.2708   4385182.4172   4078207.0058   1   6   0.0212   0.0210   0.0188  -0.0197  -0.0108   0.0142   0.40    0.0    0.00000    0.00000    0.00000   0.00000  0.00000  0.00000  0.00000  0.00000  0.00000
2284 354156.500  -2169664.3572   4385182.3288   4078207.0181   1   6   0.0213   0.0210   0.0188  -0.0198  -0.0108   0.0143   0.50    0.0    0.00000    0.00000    0.00000   0.00000  0.00000  0.00000  0.00000  0.00000  0.00000
2284 354156.600  -2169664.4299   4385182.2566   4078207.0403   1   6   0.0212   0.0210   0.0188  -0.0197  -0.0108   0.0142  -0.40    0.0    0.00000    0.00000    0.00000   0.00000  0.00000  0.00000  0.00000  0.00000  0.00000
2284 354156.700  -2169664.5374   4385182.2246   4078207.0393   1   6   0.0211   0.0209   0.0188  -0.0197  -0.0107   0.0142  -0.30    0.0    0.00000    0.00000    0.00000   0.00000  0.00000  0.00000  0.00000  0.00000  0.00000
2284 354156.800  -2169664.6487   4385182.1665   4078207.0441   1   6   0.0211   0.0209   0.0188  -0.0196  -0.0107   0.0142  -0.20    0.0    0.00000    0.00000    0.00000   0.00000  0.00000  0.00000  0.00000  0.00000  0.00000
2284 354156.900  -2169664.7976   4385182.1074   4078207.0403   1   6   0.0211   0.0209   0.0187  -0.0196  -0.0107   0.0141  -0.10    0.0    0.00000    0.00000    0.00000   0.00000  0.00000  0.00000  0.00000  0.00000  0.00000
2284 354157.000  -2169664.9325   4385182.0201   4078207.0558   1   6   0.0211   0.0209   0.0187  -0.0196  -0.0107   0.0141   0.00    0.0    0.00000    0.00000    0.00000   0.00000  0.00000  0.00000  0.00000  0.00000  0.00000
2284 354157.100  -2169665.0592   4385181.9133   4078207.0572   1   6   0.0211   0.0209   0.0187  -0.0196  -0.0107   0.0141   0.10    0.0    0.00000    0.00000    0.00000   0.00000  0.00000  0.00000  0.00000  0.00000  0.00000
2284 354157.200  -2169665.2098   4385181.8682   4078207.0683   1   6   0.0211   0.0209   0.0187  -0.0196  -0.0107   0.0142   0.20    0.0    0.00000    0.00000    0.00000   0.00000  0.00000  0.00000  0.00000  0.00000  0.00000
2284 354157.300  -2169665.3396   4385181.8148   4078207.0700   1   6   0.0212   0.0209   0.0188  -0.0197  -0.0107   0.0142   0.30    0.0    0.00000    0.00000    0.00000   0.00000  0.00000  0.00000  0.00000  0.00000  0.00000
2284 354157.400  -2169665.4540   4385181.7454   4078207.0729   1   6   0.0212   0.0210   0.0188  -0.0197  -0.0108   0.0142   0.40    0.0    0.00000    0.00000    0.00000   0.00000  0.00000  0.00000  0.00000  0.00000  0.00000
2284 354157.500  -2169665.5673   4385181.6779   4078207.0910   1   6   0.0212   0.0210   0.0188  -0.0197  -0.0108   0.0143   0.50    0.0    0.00000    0.00000    0.00000   0.00000  0.00000  0.00000  0.00000  0.00000  0.00000
2284 354157.600  -2169665.6789   4385181.6165   4078207.1101   1   6   0.0212   0.0210   0.0188  -0.0197  -0.0108   0.0142  -0.40    0.0    0.00000    0.00000    0.00000   0.00000  0.00000  0.00000  0.00000  0.00000  0.00000
2284 354157.700  -2169665.8081   4385181.5456   4078207.1208   1   6   0.0211   0.0210   0.0188  -0.0197  -0.0107   0.0142  -0.30    0.0    0.00000    0.00000    0.00000   0.00000  0.00000  0.00000  0.00000  0.00000  0.00000
2284 354157.800  -2169665.9641   4385181.4524   4078207.1098   1   6   0.0211   0.0209   0.0188  -0.0196  -0.0107   0.0142  -0.20    0.0    0.00000    0.00000    0.00000   0.00000  0.00000  0.00000  0.00000  0.00000  0.00000
2284 354157.900  -2169666.1261   4385181.3819   4078207.1179   1   6   0.0211   0.0209   0.0187  -0.0196  -0.0107   0.0141  -0.10    0.0    0.00000    0.00000    0.00000   0.00000  0.00000  0.00000  0.00000  0.00000  0.00000
2284 354158.000  -2169666.2725   4385181.2878   4078207.1417   1   6   0.0211   0.0209   0.0187  -0.0196  -0.0107   0.0141   0.00    0.0    0.00000    0.00000    0.00000   0.00000  0.00000  0.00000  0.00000  0.00000  0.00000
2284 354158.100  -2169666.4379   4385181.1974   4078207.1351   1   6   0.0211   0.0209   0.0187  -0.0196  -0.0107   0.0142   0.10    0.0    0.00000    0.00000    0.00000   0.00000  0.00000  0.00000  0.00000  0.00000  0.00000
2284 354158.200  -2169666.5851   4385181.1229   4078207.1482   1   6   0.0211   0.0209   0.0188  -0.0196  -0.0107   0.0142   0.20    0.0    0.00000    0.00000    0.00000   0.00000  0.00000  0.00000  0.00000  0.00000  0.00000
2284 354158.300  -2169666.7227   4385181.0426   4078207.1343   1   6   0.0211   0.0209   0.0188  -0.0197  -0.0107   0.0142   0.30    0.0    0.00000    0.00000    0.00000   0.00000  0.00000  0.00000  0.00000  0.00000  0.00000
2284 354158.400  -2169666.8175   4385180.9954   4078207.1673   1   6   0.0212   0.0210   0.0188  -0.0197  -0.0107   0.0142   0.40    0.0    0.00000    0.00000    0.00000   0.00000  0.00000  0.00000  0.00000  0.00000  0.00000
