% obs start : 2023/10/19 02:22:12.0
% obs end   : 2023/10/19 02:27:13.3
%
%  GPST              x-ecef(m)      y-ecef(m)      z-ecef(m)   Q  ns   sdx(m)   sdy(m)   sdz(m)  sdxy(m)  sdyz(m)  sdzx(m) age(s)  ratio    vx(m/s)    vy(m/s)    vz(m/s)      sdvx     sdvy     sdvz    sdvxy    sdvyz    sdvzx
2284 354141.000  -2169644.5574   4385194.0740   4078205.0584   1   7   0.0168   0.0199   0.0181  -0.0171   0.0112  -0.0131   0.00    0.0    0.00000    0.00000    0.00000   0.00000  0.00000  0.00000  0.00000  0.00000  0.00000
2284 354141.100  -2169644.6983   4385193.9968   4078205.0471   1   7   0.0168   0.0199   0.0181  -0.0171   0.0111  -0.0131   0.10    0.0    0.00000    0.00000    0.00000   0.00000  0.00000  0.00000  0.00000  0.00000  0.00000
2284 354141.200  -2169644.8311   4385193.9031   4078205.0533   1   7   0.0169   0.0200   0.0181  -0.0171   0.0112  -0.0131   0.20    0.0    0.00000    0.00000    0.00000   0.00000  0.00000  0.00000  0.00000  0.00000  0.00000
2284 354141.300  -2169644.9800   4385193.8207   4078205.0395   1   7   0.0169   0.0200   0.0182  -0.0172   0.0112  -0.0131   0.30    0.0    0.00000    0.00000    0.00000   0.00000  0.00000  0.00000  0.00000  0.00000  0.00000
2284 354141.400  -2169645.0985   4385193.7575   4078205.0659   1   7   0.0169   0.0200   0.0182  -0.0172   0.0112  -0.0131   0.40    0.0    0.00000    0.00000    0.00000   0.00000  0.00000  0.00000  0.00000  0.00000  0.00000
2284 354141.500  -2169645.1606   4385193.7472   4078205.0368   1   7   0.0169   0.0200   0.0182  -0.0172   0.0112  -0.0132   0.50    0.0    0.00000    0.00000    0.00000   0.00000  0.00000  0.00000  0.00000  0.00000  0.00000
2284 354141.600  -2169645.2001   4385193.7163   4078205.0436   1   7   0.0169   0.0200   0.0182  -0.0172   0.0112  -0.0131  -0.40    0.0    0.00000    0.00000    0.00000   0.00000  0.00000  0.00000  0.00000  0.00000  0.00000
2284 354141.700  -2169645.2707   4385193.6604   4078205.0400   1   7   0.0168   0.0200   0.0181  -0.0172   0.0112  -0.0132  -0.30    0.0    0.00000    0.00000    0.00000   0.00000  0.00000  0.00000  0.00000  0.00000  0.00000
2284 354141.800  -2169645.3788   4385193.6219   4078205.0168   1   7   0.0168   0.0199   0.0181  -0.0172   0.0112  -0.0131  -0.20    0.0    0.00000    0.00000    0.00000   0.00000  0.00000  0.00000  0.00000  0.00000  0.00000
2284 354141.900  -2169645.4820   4385193.5960   4078205.0129   1   7   0.0168   0.0199   0.0181  -0.0171   0.0112  -0.0131  -0.10    0.0    0.00000    0.00000    0.00000   0.00000  0.00000  0.00000  0.00000  0.00000  0.00000
2284 354142.000  -2169645.5315   4385193.5729   4078205.0312   1   7   0.0168   0.0199   0.0181  -0.0172   0.0111  -0.0131   0.00    0.0    0.00000    0.00000    0.00000   0.00000  0.00000  0.00000  0.00000  0.00000  0.00000
2284 354142.100  -2169645.5167   4385193.5393   4078205.0206   1   7   0.0168   0.0199   0.0181  -0.0172   0.0112  -0.0131   0.10    0.0    0.00000    0.00000    0.00000   0.00000  0.00000  0.00000  0.00000  0.00000  0.00000
2284 354142.200  -2169645.5548   4385193.4823   4078205.0018   1   7   0.0168   0.0199   0.0181  -0.0172   0.0111  -0.0131   0.20    0.0    0.00000    0.00000    0.00000   0.00000  0.00000  0.00000  0.00000  0.00000  0.00000
2284 354142.300  -2169645.6563   4385193.4345   4078205.0639   1   7   0.0168   0.0200   0.0182  -0.0172   0.0112  -0.0131   0.30    0.0    0.00000    0.00000    0.00000   0.00000  0.00000  0.00000  0.00000  0.00000  0.00000
2284 354142.400  -2169645.7588   4385193.3758   4078205.1174   1   7   0.0169   0.0200   0.0182  -0.0172   0.0112  -0.0131   0.40    0.0    0.00000    0.00000    0.00000   0.00000  0.00000  0.00000  0.00000  0.00000  0.00000
2284 354142.500  -2169645.8553   4385193.2842   4078205.1345   1   7   0.0169   0.0200   0.0182  -0.0172   0.0112  -0.0132   0.50    0.0    0.00000    0.00000    0.00000   0.00000  0.00000  0.00000  0.00000  0.00000  0.00000
2284 354142.600  -2169645.9641   4385193.1376   4078205.1543   1   7   0.0169   0.0200   0.0182  -0.0172   0.0112  -0.0132  -0.40    0.0    0.00000    0.00000    0.00000   0.00000  0.00000  0.00000  0.00000  0.00000  0.00000
2284 354142.700  -2169646.1121   4385193.0904   4078205.2250   1   7   0.0169   0.0200   0.0182  -0.0172   0.0112  -0.0131  -0.30    0.0    0.00000    0.00000    0.00000   0.00000  0.00000  0.00000  0.00000  0.00000  0.00000
2284 354142.800  -2169646.1905   4385192.9896   4078205.2483   1   7   0.0168   0.0199   0.0181  -0.0172   0.0112  -0.0131  -0.20    0.0    0.00000    0.00000    0.00000   0.00000  0.00000  0.00000  0.00000  0.00000  0.00000
2284 354142.900  -2169646.3164   4385192.8787   4078205.2982   1   7   0.0168   0.0199   0.0181  -0.0172   0.0112  -0.0131  -0.10    0.0    0.00000    0.00000    0.00000   0.00000  0.00000  0.00000  0.00000  0.00000  0.00000
2284 354143.000  -2169646.4685   4385192.7510   4078205.3492   1   7   0.0168   0.0199   0.0181  -0.0171   0.0111  -0.0131   0.00    0.0    0.00000    0.00000    0.00000   0.00000  0.00000  0.00000  0.00000  0.00000  0.00000
2284 354143.100  -2169646.6368   4385192.6704   4078205.4070   1   7   0.0168   0.0199   0.0181  -0.0171   0.0112  -0.0131   0.10    0.0    0.00000    0.00000    0.00000   0.00000  0.00000  0.00000  0.00000  0.00000  0.00000
2284 354143.200  -2169646.7362   4385192.5248   4078205.4622   1   7   0.0168   0.0199   0.0181  -0.0172   0.0112  -0.0131   0.20    0.0    0.00000    0.00000    0.00000   0.00000  0.00000  0.00000  0.00000  0.00000  0.00000
2284 354143.300  -2169646.8630   4385192.3693   4078205.5571   1   7   0.0168   0.0200   0.0181  -0.0172   0.0112  -0.0131   0.30    0.0    0.00000    0.00000    0.00000   0.00000  0.00000  0.00000  0.00000  0.00000  0.00000
2284 354143.400  -2169647.0112   4385192.2114   4078205.6652   1   7   0.0169   0.0200   0.0182  -0.0172   0.0112  -0.0131   0.40    0.0    0.00000    0.00000    0.00000   0.00000  0.00000  0.00000  0.00000  0.00000  0.00000
2284 354143.500  -2169647.1180   4385192.0333   4078205.7599   1   7   0.0169   0.0201   0.0182  -0.0172   0.0113  -0.0132   0.50    0.0    0.00000    0.00000    0.00000   0.00000  0.00000  0.00000  0.00000  0.00000  0.00000
2284 354143.600  -2169647.2141   4385191.8702   4078205.8720   1   7   0.0168   0.0200   0.0182  -0.0172   0.0112  -0.0132  -0.40    0.0    0.00000    0.00000    0.00000   0.00000  0.00000  0.00000  0.00000  0.00000  0.00000
2284 354143.700  -2169647.3292   4385191.7138   4078206.0346   1   7   0.0168   0.0200   0.0181  -0.0172   0.0112  -0.0131  -0.30    0.0    0.00000    0.00000    0.00000   0.00000  0.00000  0.00000  0.00000  0.00000  0.00000
2284 354143.800  -2169647.3936   4385191.5611   4078206.1145   1   7   0.0168   0.0199   0.0181  -0.0172   0.0112  -0.0131  -0.20    0.0    0.00000    0.00000    0.00000   0.00000  0.00000  0.00000  0.00000  0.00000  0.00000
2284 354143.900  -2169647.4710   4385191.4384   4078206.2467   1   7   0.0168   0.0199   0.0181  -0.0171   0.0112  -0.0131  -0.10    0.0    0.00000    0.00000    0.00000   0.00000  0.00000  0.00000  0.00000  0.00000  0.00000
2284 354144.000  -2169647.5151   4385191.3461   4078206.3136   1   7   0.0168   0.0199   0.0181  -0.0171   0.0112  -0.0131   0.00    0.0    0.00000    0.00000    0.00000   0.00000  0.00000  0.00000  0.00000  0.00000  0.00000
2284 354144.100  -2169647.5193   4385191.2595   4078206.3602   1   7   0.0168   0.0199   0.0181  -0.0171   0.0112  -0.0131   0.10    0.0    0.00000    0.00000    0.00000   0.00000  0.00000  0.00000  0.00000  0.00000  0.00000
2284 354144.200  -2169647.5690   4385191.2266   4078206.3907   1   7   0.0168   0.0199   0.0181  -0.0171   0.0112  -0.0131   0.20    0.0    0.00000    0.00000    0.00000   0.00000  0.00000  0.00000  0.00000  0.00000  0.00000
2284 354144.300  -2169647.6418   4385191.1739   4078206.4593   1   9   0.0168   0.0200   0.0181  -0.0172   0.0112  -0.0132   0.30    0.0    0.00000    0.00000    0.00000   0.00000  0.00000  0.00000  0.00000  0.00000  0.00000
2284 354144.400  -2169647.7000   4385191.0959   4078206.4753   1   9   0.0138   0.0167   0.0156  -0.0140   0.0106  -0.0115   0.40    0.0    0.00000    0.00000    0.00000   0.00000  0.00000  0.00000  0.00000  0.00000  0.00000
2284 354144.500  -2169647.7783   4385191.0711   4078206.4933   1   9   0.0126   0.0155   0.0147  -0.0128   0.0103  -0.0110   0.50    0.0    0.00000    0.00000    0.00000   0.00000  0.00000  0.00000  0.00000  0.00000  0.00000
2284 354144.600  -2169647.8843   4385191.0134   4078206.4617   1   8   0.0165   0.0183   0.0163  -0.0163   0.0138  -0.0142  -0.40    0.0    0.00000    0.00000    0.00000   0.00000  0.00000  0.00000  0.00000  0.00000  0.00000
2284 354144.700  -2169648.0053   4385190.9200   4078206.5257   1   8   0.0121   0.0159   0.0170  -0.0124   0.0070  -0.0098  -0.30    0.0    0.00000    0.00000    0.00000   0.00000  0.00000  0.00000  0.00000  0.00000  0.00000
2284 354144.800  -2169648.1424   4385190.8593   4078206.5419   1   8   0.0117   0.0156   0.0169  -0.0120   0.0066  -0.0096  -0.20    0.0    0.00000    0.00000    0.00000   0.00000  0.00000  0.00000  0.00000  0.00000  0.00000
2284 354144.900  -2169648.2542   4385190.7900   4078206.5151   1   8   0.0100   0.0143   0.0166  -0.0104   0.0048  -0.0085  -0.10    0.0    0.00000    0.00000    0.00000   0.00000  0.00000  0.00000  0.00000  0.00000  0.00000
2284 354145.000  -2169648.3429   4385190.7785   4078206.5179   1   8   0.0100   0.0143   0.0165  -0.0104   0.0047  -0.0085   0.00    0.0    0.00000    0.00000    0.00000   0.00000  0.00000  0.00000  0.00000  0.00000  0.00000
2284 354145.100  -2169648.3952   4385190.7676   4078206.5080   1   8   0.0100   0.0143   0.0166  -0.0104   0.0049  -0.0085   0.10    0.0    0.00000    0.00000    0.00000   0.00000  0.00000  0.00000  0.00000  0.00000  0.00000
2284 354145.200  -2169648.4067   4385190.7433   4078206.4815   1   8   0.0100   0.0143   0.0166  -0.0104   0.0048  -0.0085   0.20    0.0    0.00000    0.00000    0.00000   0.00000  0.00000  0.00000  0.00000  0.00000  0.00000
2284 354145.300  -2169648.3866   4385190.7075   4078206.4490   1   7   0.0168   0.0200   0.0181  -0.0172   0.0112  -0.0131   0.30    0.0    0.00000    0.00000    0.00000   0.00000  0.00000  0.00000  0.00000  0.00000  0.00000
2284 354145.400  -2169648.4034   4385190.7130   4078206.4661   1   7   0.0169   0.0200   0.0182  -0.0172   0.0112  -0.0131   0.40    0.0    0.00000    0.00000    0.00000   0.00000  0.00000  0.00000  0.00000  0.00000  0.00000
2284 354145.500  -2169648.4169   4385190.7223   4078206.4745   1   7   0.0169   0.0200   0.0182  -0.0172   0.0113  -0.0132   0.50    0.0    0.00000    0.00000    0.00000   0.00000  0.00000  0.00000  0.00000  0.00000  0.00000
2284 354145.600  -2169648.4284   4385190.6882   4078206.4771   1   7   0.0169   0.0200   0.0182  -0.0172   0.0112  -0.0132  -0.40    0.0    0.00000    0.00000    0.00000   0.00000  0.00000  0.00000  0.00000  0.00000  0.00000
2284 354145.700  -2169648.5060   4385190.6520   4078206.5160   1   7   0.0168   0.0200   0.0181  -0.0172   0.0112  -0.0131  -0.30    0.0    0.00000    0.00000    0.00000   0.00000  0.00000  0.00000  0.00000  0.00000  0.00000
2284 354145.800  -2169648.6035   4385190.5668   4078206.5711   1   7   0.0168   0.0199   0.0181  -0.0172   0.0112  -0.0131  -0.20    0.0    0.00000    0.00000    0.00000   0.00000  0.00000  0.00000  0.00000  0.00000  0.00000
2284 354145.900  -2169648.7097   4385190.5028   4078206.6437   1   7   0.0168   0.0199   0.0181  -0.0172   0.0112  -0.0131  -0.10    0.0    0.00000    0.00000    0.00000   0.00000  0.00000  0.00000  0.00000  0.00000  0.00000
2284 354146.000  -2169648.7588   4385190.4177   4078206.6313   1   7   0.0168   0.0199   0.0181  -0.0171   0.0112  -0.0131   0.00    0.0    0.00000    0.00000    0.00000   0.00000  0.00000  0.00000  0.00000  0.00000  0.00000
2284 354146.100  -2169648.8176   4385190.3826   4078206.6759   1   7   0.0168   0.0199   0.0181  -0.0172   0.0111  -0.0131   0.10    0.0    0.00000    0.00000    0.00000   0.00000  0.00000  0.00000  0.00000  0.00000  0.00000
2284 354146.200  -2169648.8411   4385190.3322   4078206.7020   1   7   0.0168   0.0199   0.0181  -0.0172   0.0112  -0.0131   0.20    0.0    0.00000    0.00000    0.00000   0.00000  0.00000  0.00000  0.00000  0.00000  0.00000
2284 354146.300  -2169648.8838   4385190.2922   4078206.7039   1   8   0.0169   0.0200   0.0181  -0.0172   0.0112  -0.0131   0.30    0.0    0.00000    0.00000    0.00000   0.00000  0.00000  0.00000  0.00000  0.00000  0.00000
2284 354146.400  -2169648.9664   4385190.2790   4078206.7425   1   8   0.0154   0.0195   0.0149  -0.0163   0.0090  -0.0101   0.40    0.0    0.00000    0.00000    0.00000   0.00000  0.00000  0.00000  0.00000  0.00000  0.00000
2284 354146.500  -2169649.0326   4385190.2264   4078206.7685   1   8   0.0149   0.0194   0.0137  -0.0160   0.0081  -0.0089   0.50    0.0    0.00000    0.00000    0.00000   0.00000  0.00000  0.00000  0.00000  0.00000  0.00000
2284 354146.600  -2169649.1171   4385190.1596   4078206.7419   1   8   0.0146   0.0193   0.0130  -0.0158   0.0076  -0.0081  -0.40    0.0    0.00000    0.00000    0.00000   0.00000  0.00000  0.00000  0.00000  0.00000  0.00000
2284 354146.700  -2169649.2244   4385190.0668   4078206.7470   1   8   0.0144   0.0192   0.0126  -0.0157   0.0073  -0.0077  -0.30    0.0    0.00000    0.00000    0.00000   0.00000  0.00000  0.00000  0.00000  0.00000  0.00000
2284 354146.800  -2169649.3633   4385189.9947   4078206.7848   1   8   0.0137   0.0190   0.0108  -0.0153   0.0060  -0.0054  -0.20    0.0    0.00000    0.00000    0.00000   0.00000  0.00000  0.00000  0.00000  0.00000  0.00000
2284 354146.900  -2169649.5006   4385189.9362   4078206.8421   1   8   0.0137   0.0189   0.0108  -0.0153   0.0059  -0.0055  -0.10    0.0    0.00000    0.00000    0.00000   0.00000  0.00000  0.00000  0.00000  0.00000  0.00000
2284 354147.000  -2169649.6360   4385189.8504   4078206.8469   1   8   0.0137   0.0189   0.0107  -0.0153   0.0058  -0.0056   0.00    0.0    0.00000    0.00000    0.00000   0.00000  0.00000  0.00000  0.00000  0.00000  0.00000
2284 354147.100  -2169649.7724   4385189.7281   4078206.8497   1   8   0.0138   0.0189   0.0108  -0.0153   0.0059  -0.0056   0.10    0.0    0.00000    0.00000    0.00000   0.00000  0.00000  0.00000  0.00000  0.00000  0.00000
2284 354147.200  -2169649.9677   4385189.6546   4078206.8540   1   8   0.0138   0.0190   0.0108  -0.0153   0.0059  -0.0055   0.20    0.0    0.00000    0.00000    0.00000   0.00000  0.00000  0.00000  0.00000  0.00000  0.00000
2284 354147.300  -2169650.1747   4385189.5395   4078206.8740   1   8   0.0138   0.0190   0.0108  -0.0153   0.0060  -0.0054   0.30    0.0    0.00000    0.00000    0.00000   0.00000  0.00000  0.00000  0.00000  0.00000  0.00000
2284 354147.400  -2169650.3833   4385189.4037   4078206.9052   1   8   0.0138   0.0190   0.0108  -0.0153   0.0059  -0.0055   0.40    0.0    0.00000    0.00000    0.00000   0.00000  0.00000  0.00000  0.00000  0.00000  0.00000
2284 354147.500  -2169650.6283   4385189.3040   4078206.8975   1   8   0.0138   0.0191   0.0108  -0.0154   0.0060  -0.0055   0.50    0.0    0.00000    0.00000    0.00000   0.00000  0.00000  0.00000  0.00000  0.00000  0.00000
2284 354147.600  -2169650.8583   4385189.2066   4078206.9038   1   8   0.0138   0.0190   0.0108  -0.0153   0.0060  -0.0054  -0.40    0.0    0.00000    0.00000    0.00000   0.00000  0.00000  0.00000  0.00000  0.00000  0.00000
2284 354147.700  -2169651.0346   4385189.1398   4078206.8873   1   8   0.0138   0.0190   0.0108  -0.0153   0.0059  -0.0055  -0.30    0.0    0.00000    0.00000    0.00000   0.00000  0.00000  0.00000  0.00000  0.00000  0.00000
2284 354147.800  -2169651.1685   4385189.0525   4078206.8688   1   8   0.0137   0.0189   0.0108  -0.0153   0.0059  -0.0056  -0.20    0.0    0.00000    0.00000    0.00000   0.00000  0.00000  0.00000  0.00000  0.00000  0.00000
2284 354147.900  -2169651.3563   4385188.9474   4078206.8593   1   8   0.0137   0.0189   0.0108  -0.0153   0.0059  -0.0056  -0.10    0.0    0.00000    0.00000    0.00000   0.00000  0.00000  0.00000  0.00000  0.00000  0.00000
2284 354148.000  -2169651.5802   4385188.8372   4078206.8067   1   8   0.0137   0.0189   0.0108  -0.0153   0.0059  -0.0055   0.00    0.0    0.00000    0.00000    0.00000   0.00000  0.00000  0.00000  0.00000  0.00000  0.00000
2284 354148.100  -2169651.8177   4385188.7617   4078206.8152   1   8   0.0137   0.0189   0.0108  -0.0153   0.0060  -0.0054   0.10    0.0    0.00000    0.00000    0.00000   0.00000  0.00000  0.00000  0.00000  0.00000  0.00000
2284 354148.200  -2169652.0042   4385188.6711   4078206.7891   1   8   0.0137   0.0190   0.0108  -0.0153   0.0060  -0.0054   0.20    0.0    0.00000    0.00000    0.00000   0.00000  0.00000  0.00000  0.00000  0.00000  0.00000
2284 354148.300  -2169652.2254   4385188.5799   4078206.8220   1   8   0.0138   0.0190   0.0108  -0.0153   0.0059  -0.0055   0.30    0.0    0.00000    0.00000    0.00000   0.00000  0.00000  0.00000  0.00000  0.00000  0.00000
2284 354148.400  -2169652.4221   4385188.4716   4078206.8010   1   8   0.0138   0.0190   0.0108  -0.0154   0.0059  -0.0055   0.40    0.0    0.00000    0.00000    0.00000   0.00000  0.00000  0.00000  0.00000  0.00000  0.00000
2284 354148.500  -2169652.6459   4385188.3704   4078206.8445   1   8   0.0138   0.0191   0.0109  -0.0154   0.0060  -0.0055   0.50    0.0    0.00000    0.00000    0.00000   0.00000  0.00000  0.00000  0.00000  0.00000  0.00000
2284 354148.600  -2169652.8361   4385188.2458   4078206.8230   1   8   0.0138   0.0190   0.0109  -0.0153   0.0060  -0.0054  -0.40    0.0    0.00000    0.00000    0.00000   0.00000  0.00000  0.00000  0.00000  0.00000  0.00000
2284 354148.700  -2169653.0656   4385188.1518   4078206.8375   1   8   0.0137   0.0190   0.0108  -0.0153   0.0059  -0.0055  -0.30    0.0    0.00000    0.00000    0.00000   0.00000  0.00000  0.00000  0.00000  0.00000  0.00000
2284 354148.800  -2169653.2727   4385188.0362   4078206.8337   1   8   0.0137   0.0189   0.0108  -0.0153   0.0059  -0.0055  -0.20    0.0    0.00000    0.00000    0.00000   0.00000  0.00000  0.00000  0.00000  0.00000  0.00000
2284 354148.900  -2169653.4864   4385187.9407   4078206.8655   1   8   0.0137   0.0189   0.0108  -0.0153   0.0059  -0.0054  -0.10    0.0    0.00000    0.00000    0.00000   0.00000  0.00000  0.00000  0.00000  0.00000  0.00000
2284 354149.000  -2169653.6759   4385187.8309   4078206.8527   1   8   0.0137   0.0189   0.0108  -0.0153   0.0059  -0.0055   0.00    0.0    0.00000    0.00000    0.00000   0.00000  0.00000  0.00000  0.00000  0.00000  0.00000
2284 354149.100  -2169653.8440   4385187.7052   4078206.8303   1   8   0.0137   0.0189   0.0108  -0.0153   0.0060  -0.0055   0.10    0.0    0.00000    0.00000    0.00000   0.00000  0.00000  0.00000  0.00000  0.00000  0.00000
2284 354149.200  -2169654.0262   4385187.6356   4078206.8623   1   8   0.0137   0.0190   0.0108  -0.0153   0.0060  -0.0055   0.20    0.0    0.00000    0.00000    0.00000   0.00000  0.00000  0.00000  0.00000  0.00000  0.00000
2284 354149.300  -2169654.1753   4385187.5413   4078206.8442   1   8   0.0138   0.0190   0.0108  -0.0153   0.0059  -0.0055   0.30    0.0    0.00000    0.00000    0.00000   0.00000  0.00000  0.00000  0.00000  0.00000  0.00000
2284 354149.400  -2169654.4014   4385187.4735   4078206.8932   1   8   0.0137   0.0190   0.0108  -0.0154   0.0059  -0.0055   0.40    0.0    0.00000    0.00000    0.00000   0.00000  0.00000  0.00000  0.00000  0.00000  0.00000
2284 354149.500  -2169654.6225   4385187.3319   4078206.8896   1   8   0.0138   0.0190   0.0109  -0.0154   0.0060  -0.0055   0.50    0.0    0.00000    0.00000    0.00000   0.00000  0.00000  0.00000  0.00000  0.00000  0.00000
2284 354149.600  -2169654.8855   4385187.1921   4078206.8907   1   8   0.0138   0.0190   0.0108  -0.0154   0.0060  -0.0055  -0.40    0.0    0.00000    0.00000    0.00000   0.00000  0.00000  0.00000  0.00000  0.00000  0.00000
2284 354149.700  -2169655.1395   4385187.0425   4078206.8693   1   8   0.0138   0.0190   0.0108  -0.0153   0.0059  -0.0055  -0.30    0.0    0.00000    0.00000    0.00000   0.00000  0.00000  0.00000  0.00000  0.00000  0.00000
2284 354149.800  -2169655.3874   4385186.8976   4078206.8836   1   8   0.0138   0.0190   0.0108  -0.0153   0.0059  -0.0055  -0.20    0.0    0.00000    0.00000    0.00000   0.00000  0.00000  0.00000  0.00000  0.00000  0.00000
2284 354149.900  -2169655.6313   4385186.7687   4078206.9067   1   8   0.0138   0.0189   0.0108  -0.0153   0.0059  -0.0054  -0.10    0.0    0.00000    0.00000    0.00000   0.00000  0.00000  0.00000  0.00000  0.00000  0.00000
2284 354150.000  -2169655.8732   4385186.6790   4078206.9103   1   8   0.0138   0.0189   0.0108  -0.0153   0.0059  -0.0055   0.00    0.0    0.00000    0.00000    0.00000   0.00000  0.00000  0.00000  0.00000  0.00000  0.00000
2284 354150.100  -2169656.1010   4385186.5560   4078206.9120   1   8   0.0137   0.0189   0.0108  -0.0153   0.0059  -0.0055   0.10    0.0    0.00000    0.00000    0.00000   0.00000  0.00000  0.00000  0.00000  0.00000  0.00000
2284 354150.200  -2169656.3075   4385186.4291   4078206.9102   1   8   0.0137   0.0189   0.0108  -0.0153   0.0058  -0.0057   0.20    0.0    0.00000    0.00000    0.00000   0.00000  0.00000  0.00000  0.00000  0.00000  0.00000
2284 354150.300  -2169656.5164   4385186.3314   4078206.8908   1  10   0.0137   0.0190   0.0108  -0.0153   0.0059  -0.0055   0.30    0.0    0.00000    0.00000    0.00000   0.00000  0.00000  0.00000  0.00000  0.00000  0.00000
2284 354150.400  -2169656.6899   4385186.1850   4078206.9008   1  10   0.0113   0.0159   0.0102  -0.0124   0.0070  -0.0061   0.40    0.0    0.00000    0.00000    0.00000   0.00000  0.00000  0.00000  0.00000  0.00000  0.00000
2284 354150.500  -2169656.8699   4385186.0892   4078206.9170   1  10   0.0103   0.0147   0.0099  -0.0113   0.0074  -0.0063   0.50    0.0    0.00000    0.00000    0.00000   0.00000  0.00000  0.00000  0.00000  0.00000  0.00000
2284 354150.600  -2169657.0560   4385186.0062   4078206.9387   1  10   0.0098   0.0141   0.0098  -0.0106   0.0075  -0.0063  -0.40    0.0    0.00000    0.00000    0.00000   0.00000  0.00000  0.00000  0.00000  0.00000  0.00000
2284 354150.700  -2169657.2730   4385185.9704   4078206.9122   1   9   0.0103   0.0154   0.0108  -0.0115   0.0050  -0.0047  -0.30    0.0    0.00000    0.00000    0.00000   0.00000  0.00000  0.00000  0.00000  0.00000  0.00000
2284 354150.800  -2169657.4719   4385185.8986   4078206.8999   1   9   0.0091   0.0143   0.0108  -0.0103   0.0047  -0.0044  -0.20    0.0    0.00000    0.00000    0.00000   0.00000  0.00000  0.00000  0.00000  0.00000  0.00000
2284 354150.900  -2169657.6385   4385185.8085   4078206.8910   1   9   0.0092   0.0143   0.0108  -0.0103   0.0047  -0.0046  -0.10    0.0    0.00000    0.00000    0.00000   0.00000  0.00000  0.00000  0.00000  0.00000  0.00000
2284 354151.000  -2169657.8022   4385185.7349   4078206.8757   1   9   0.0091   0.0143   0.0107  -0.0104   0.0047  -0.0044   0.00    0.0    0.00000    0.00000    0.00000   0.00000  0.00000  0.00000  0.00000  0.00000  0.00000
2284 354151.100  -2169657.9116   4385185.6252   4078206.8809   1   9   0.0092   0.0143   0.0108  -0.0103   0.0047  -0.0045   0.10    0.0    0.00000    0.00000    0.00000   0.00000  0.00000  0.00000  0.00000  0.00000  0.00000
2284 354151.200  -2169658.0344   4385185.5698   4078206.8976   1   9   0.0091   0.0143   0.0107  -0.0104   0.0048  -0.0045   0.20    0.0    0.00000    0.00000    0.00000   0.00000  0.00000  0.00000  0.00000  0.00000  0.00000
2284 354151.300  -2169658.1617   4385185.5187   4078206.8764   1   9   0.0091   0.0144   0.0108  -0.0103   0.0047  -0.0044   0.30    0.0    0.00000    0.00000    0.00000   0.00000  0.00000  0.00000  0.00000  0.00000  0.00000
2284 354151.400  -2169658.3026   4385185.4739   4078206.8818   1   9   0.0091   0.0144   0.0108  -0.0104   0.0047  -0.0045   0.40    0.0    0.00000    0.00000    0.00000   0.00000  0.00000  0.00000  0.00000  0.00000  0.00000
2284 354151.500  -2169658.4286   4385185.3997   4078206.8883   1   9   0.0091   0.0144   0.0108  -0.0104   0.0047  -0.0044   0.50    0.0    0.00000    0.00000    0.00000   0.00000  0.00000  0.00000  0.00000  0.00000  0.00000
2284 354151.600  -2169658.5736   4385185.3241   4078206.8873   1   9   0.0091   0.0144   0.0108  -0.0104   0.0047  -0.0045  -0.40    0.0    0.00000    0.00000    0.00000   0.00000  0.00000  0.00000  0.00000  0.00000  0.00000
2284 354151.700  -2169658.7171   4385185.2561   4078206.9059   1   9   0.0092   0.0144   0.0107  -0.0103   0.0048  -0.0044  -0.30    0.0    0.00000    0.00000    0.00000   0.00000  0.00000  0.00000  0.00000  0.00000  0.00000
2284 354151.800  -2169658.8483   4385185.1976   4078206.8867   1   9   0.0091   0.0143   0.0107  -0.0104   0.0047  -0.0044  -0.20    0.0    0.00000    0.00000    0.00000   0.00000  0.00000  0.00000  0.00000  0.00000  0.00000
2284 354151.900  -2169658.9822   4385185.1544   4078206.8664   1   9   0.0091   0.0143   0.0107  -0.0103   0.0047  -0.0044  -0.10    0.0    0.00000    0.00000    0.00000   0.00000  0.00000  0.00000  0.00000  0.00000  0.00000
2284 354152.000  -2169659.0960   4385185.0713   4078206.8743   1   9   0.0092   0.0143   0.0107  -0.0103   0.0048  -0.0044   0.00    0.0    0.00000    0.00000    0.00000   0.00000  0.00000  0.00000  0.00000  0.00000  0.00000
2284 354152.100  -2169659.2277   4385184.9848   4078206.8839   1   9   0.0091   0.0143   0.0108  -0.0104   0.0047  -0.0046   0.10    0.0    0.00000    0.00000    0.00000   0.00000  0.00000  0.00000  0.00000  0.00000  0.00000
2284 354152.200  -2169659.3774   4385184.9317   4078206.8920   1   9   0.0091   0.0143   0.0108  -0.0103   0.0048  -0.0043   0.20    0.0    0.00000    0.00000    0.00000   0.00000  0.00000  0.00000  0.00000  0.00000  0.00000
2284 354152.300  -2169659.5157   4385184.8663   4078206.8674   1   9   0.0092   0.0144   0.0108  -0.0103   0.0048  -0.0045   0.30    0.0    0.00000    0.00000    0.00000   0.00000  0.00000  0.00000  0.00000  0.00000  0.00000
2284 354152.400  -2169659.6463   4385184.7781   4078206.8672   1   9   0.0092   0.0144   0.0108  -0.0104   0.0048  -0.0045   0.40    0.0    0.00000    0.00000    0.00000   0.00000  0.00000  0.00000  0.00000  0.00000  0.00000
2284 354152.500  -2169659.7805   4385184.7130   4078206.8664   1   9   0.0092   0.0144   0.0108  -0.0104   0.0047  -0.0045   0.50    0.0    0.00000    0.00000    0.00000   0.00000  0.00000  0.00000  0.00000  0.00000  0.00000
2284 354152.600  -2169659.9376   4385184.6640   4078206.8719   1   9   0.0092   0.0144   0.0108  -0.0103   0.0048  -0.0044  -0.40    0.0    0.00000    0.00000    0.00000   0.00000  0.00000  0.00000  0.00000  0.00000  0.00000
2284 354152.700  -2169660.0886   4385184.5894   4078206.8763   1   9   0.0091   0.0144   0.0107  -0.0103   0.0048  -0.0044  -0.30    0.0    0.00000    0.00000    0.00000   0.00000  0.00000  0.00000  0.00000  0.00000  0.00000
2284 354152.800  -2169660.2346   4385184.5156   4078206.8759   1   9   0.0091   0.0143   0.0107  -0.0103   0.0047  -0.0044  -0.20    0.0    0.00000    0.00000    0.00000   0.00000  0.00000  0.00000  0.00000  0.00000  0.00000
2284 354152.900  -2169660.3673   4385184.4332   4078206.8818   1   9   0.0092   0.0143   0.0107  -0.0103   0.0047  -0.0046  -0.10    0.0    0.00000    0.00000    0.00000   0.00000  0.00000  0.00000  0.00000  0.00000  0.00000
2284 354153.000  -2169660.4943   4385184.3340   4078206.8825   1   9   0.0091   0.0143   0.0107  -0.0103   0.0048  -0.0045   0.00    0.0    0.00000    0.00000    0.00000   0.00000  0.00000  0.00000  0.00000  0.00000  0.00000
2284 354153.100  -2169660.6375   4385184.2690   4078206.8742   1   9   0.0091   0.0143   0.0107  -0.0104   0.0047  -0.0044   0.10    0.0    0.00000    0.00000    0.00000   0.00000  0.00000  0.00000  0.00000  0.00000  0.00000
2284 354153.200  -2169660.7675   4385184.2141   4078206.8750   1   9   0.0091   0.0143   0.0107  -0.0103   0.0048  -0.0044   0.20    0.0    0.00000    0.00000    0.00000   0.00000  0.00000  0.00000  0.00000  0.00000  0.00000
2284 354153.300  -2169660.8743   4385184.1462   4078206.8731   1   9   0.0092   0.0144   0.0108  -0.0103   0.0048  -0.0043   0.30    0.0    0.00000    0.00000    0.00000   0.00000  0.00000  0.00000  0.00000  0.00000  0.00000
2284 354153.400  -2169660.9828   4385184.1161   4078206.8736   1   9   0.0091   0.0144   0.0107  -0.0104   0.0047  -0.0045   0.40    0.0    0.00000    0.00000    0.00000   0.00000  0.00000  0.00000  0.00000  0.00000  0.00000
2284 354153.500  -2169661.0890   4385184.0738   4078206.8864   1   9   0.0091   0.0144   0.0108  -0.0104   0.0048  -0.0044   0.50    0.0    0.00000    0.00000    0.00000   0.00000  0.00000  0.00000  0.00000  0.00000  0.00000
2284 354153.600  -2169661.2025   4385184.0130   4078206.8856   1   9   0.0091   0.0144   0.0107  -0.0104   0.0048  -0.0043  -0.40    0.0    0.00000    0.00000    0.00000   0.00000  0.00000  0.00000  0.00000  0.00000  0.00000
2284 354153.700  -2169661.3364   4385183.9248   4078206.8934   1   9   0.0090   0.0143   0.0107  -0.0104   0.0047  -0.0045  -0.30    0.0    0.00000    0.00000    0.00000   0.00000  0.00000  0.00000  0.00000  0.00000  0.00000
2284 354153.800  -2169661.4779   4385183.8555   4078206.8890   1   9   0.0090   0.0143   0.0107  -0.0104   0.0048  -0.0043  -0.20    0.0    0.00000    0.00000    0.00000   0.00000  0.00000  0.00000  0.00000  0.00000  0.00000
2284 354153.900  -2169661.6163   4385183.7851   4078206.8866   1   9   0.0091   0.0143   0.0107  -0.0103   0.0047  -0.0045  -0.10    0.0    0.00000    0.00000    0.00000   0.00000  0.00000  0.00000  0.00000  0.00000  0.00000
2284 354154.000  -2169661.7476   4385183.7048   4078206.8963   1   9   0.0091   0.0143   0.0107  -0.0103   0.0048  -0.0045   0.00    0.0    0.00000    0.00000    0.00000   0.00000  0.00000  0.00000  0.00000  0.00000  0.00000
2284 354154.100  -2169661.8834   4385183.6479   4078206.9033   1   9   0.0091   0.0143   0.0107  -0.0103   0.0047  -0.0044   0.10    0.0    0.00000    0.00000    0.00000   0.00000  0.00000  0.00000  0.00000  0.00000  0.00000
2284 354154.200  -2169661.9956   4385183.5945   4078206.9076   1   9   0.0092   0.0143   0.0108  -0.0103   0.0047  -0.0045   0.20    0.0    0.00000    0.00000    0.00000   0.00000  0.00000  0.00000  0.00000  0.00000  0.00000
2284 354154.300  -2169662.0770   4385183.5390   4078206.9036   1   9   0.0092   0.0144   0.0108  -0.0103   0.0048  -0.0043   0.30    0.0    0.00000    0.00000    0.00000   0.00000  0.00000  0.00000  0.00000  0.00000  0.00000
2284 354154.400  -2169662.1571   4385183.4970   4078206.9069   1   9   0.0091   0.0144   0.0107  -0.0104   0.0047  -0.0046   0.40    0.0    0.00000    0.00000    0.00000   0.00000  0.00000  0.00000  0.00000  0.00000  0.00000
2284 354154.500  -2169662.2458   4385183.4428   4078206.9111   1   9   0.0091   0.0144   0.0108  -0.0104   0.0048  -0.0045   0.50    0.0    0.00000    0.00000    0.00000   0.00000  0.00000  0.00000  0.00000  0.00000  0.00000
2284 354154.600  -2169662.3319   4385183.3886   4078206.9127   1   9   0.0091   0.0143   0.0107  -0.0104   0.0047  -0.0045  -0.40    0.0    0.00000    0.00000    0.00000   0.00000  0.00000  0.00000  0.00000  0.00000  0.00000
2284 354154.700  -2169662.4309   4385183.3288   4078206.9250   1   9   0.0091   0.0143   0.0107  -0.0104   0.0048  -0.0045  -0.30    0.0    0.00000    0.00000    0.00000   0.00000  0.00000  0.00000  0.00000  0.00000  0.00000
2284 354154.800  -2169662.5422   4385183.2905   4078206.9241   1   9   0.0092   0.0143   0.0107  -0.0103   0.0047  -0.0045  -0.20    0.0    0.00000    0.00000    0.00000   0.00000  0.00000  0.00000  0.00000  0.00000  0.00000
2284 354154.900  -2169662.6437   4385183.2352   4078206.9156   1   9   0.0091   0.0143   0.0107  -0.0103   0.0047  -0.0044  -0.10    0.0    0.00000    0.00000    0.00000   0.00000  0.00000  0.00000  0.00000  0.00000  0.00000
2284 354155.000  -2169662.7562   4385183.1914   4078206.9245   1   9   0.0090   0.0143   0.0107  -0.0104   0.0048  -0.0043   0.00    0.0    0.00000    0.00000    0.00000   0.00000  0.00000  0.00000  0.00000  0.00000  0.00000
2284 354155.100  -2169662.8475   4385183.1139   4078206.9419   1   9   0.0092   0.0143   0.0108  -0.0103   0.0048  -0.0043   0.10    0.0    0.00000    0.00000    0.00000   0.00000  0.00000  0.00000  0.00000  0.00000  0.00000
2284 354155.200  -2169662.9612   4385183.0479   4078206.9373   1   9   0.0091   0.0143   0.0107  -0.0104   0.0048  -0.0044   0.20    0.0    0.00000    0.00000    0.00000   0.00000  0.00000  0.00000  0.00000  0.00000  0.00000
2284 354155.300  -2169663.0721   4385182.9972   4078206.9316   1   9   0.0091   0.0143   0.0107  -0.0104   0.0047  -0.0044   0.30    0.0    0.00000    0.00000    0.00000   0.00000  0.00000  0.00000  0.00000  0.00000  0.00000
2284 354155.400  -2169663.1789   4385182.9461   4078206.9441   1   9   0.0091   0.0144   0.0107  -0.0104   0.0048  -0.0044   0.40    0.0    0.00000    0.00000    0.00000   0.00000  0.00000  0.00000  0.00000  0.00000  0.00000
2284 354155.500  -2169663.2842   4385182.8832   4078206.9536   1   9   0.0091   0.0144   0.0108  -0.0104   0.0048  -0.0045   0.50    0.0    0.00000    0.00000    0.00000   0.00000  0.00000  0.00000  0.00000  0.00000  0.00000
2284 354155.600  -2169663.3879   4385182.8210   4078206.9689   1   9   0.0091   0.0144   0.0108  -0.0104   0.0048  -0.0045  -0.40    0.0    0.00000    0.00000    0.00000   0.00000  0.00000  0.00000  0.00000  0.00000  0.00000
2284 354155.700  -2169663.5164   4385182.7609   4078206.9691   1   9   0.0091   0.0143   0.0107  -0.0103   0.0047  -0.0044  -0.30    0.0    0.00000    0.00000    0.00000   0.00000  0.00000  0.00000  0.00000  0.00000  0.00000
2284 354155.800  -2169663.6470   4385182.6902   4078206.9824   1   9   0.0091   0.0143   0.0107  -0.0103   0.0047  -0.0045  -0.20    0.0    0.00000    0.00000    0.00000   0.00000  0.00000  0.00000  0.00000  0.00000  0.00000
2284 354155.900  -2169663.7580   4385182.6174   4078206.9897   1   9   0.0091   0.0143   0.0107  -0.0103   0.0047  -0.0045  -0.10    0.0    0.00000    0.00000    0.00000   0.00000  0.00000  0.00000  0.00000  0.00000  0.00000
2284 354156.000  -2169663.8548   4385182.5617   4078206.9935   1   9   0.0091   0.0143   0.0107  -0.0103   0.0048  -0.0042   0.00    0.0    0.00000    0.00000    0.00000   0.00000  0.00000  0.00000  0.00000  0.00000  0.00000
2284 354156.100  -2169663.9551   4385182.5353   4078206.9870   1   9   0.0090   0.0143   0.0107  -0.0104   0.0046  -0.0047   0.10    0.0    0.00000    0.00000    0.00000   0.00000  0.00000  0.00000  0.00000  0.00000  0.00000
2284 354156.200  -2169664.0556   4385182.4898   4078206.9863   1   9   0.0091   0.0143   0.0107  -0.0104   0.0048  -0.0044   0.20    0.0    0.00000    0.00000    0.00000   0.00000  0.00000  0.00000  0.00000  0.00000  0.00000
2284 354156.300  -2169664.1392   4385182.4233   4078206.9936   1   9   0.0091   0.0143   0.0107  -0.0103   0.0048  -0.0043   0.30    0.0    0.00000    0.00000    0.00000   0.00000  0.00000  0.00000  0.00000  0.00000  0.00000
2284 354156.400  -2169664.2427   4385182.3576   4078206.9874   1   9   0.0092   0.0144   0.0108  -0.0104   0.0047  -0.0046   0.40    0.0    0.00000    0.00000    0.00000   0.00000  0.00000  0.00000  0.00000  0.00000  0.00000
2284 354156.500  -2169664.3402   4385182.2963   4078207.0110   1   9   0.0092   0.0144   0.0108  -0.0104   0.0048  -0.0045   0.50    0.0    0.00000    0.00000    0.00000   0.00000  0.00000  0.00000  0.00000  0.00000  0.00000
2284 354156.600  -2169664.4324   4385182.2389   4078207.0153   1   9   0.0091   0.0143   0.0107  -0.0104   0.0047  -0.0044  -0.40    0.0    0.00000    0.00000    0.00000   0.00000  0.00000  0.00000  0.00000  0.00000  0.00000
2284 354156.700  -2169664.5255   4385182.1846   4078207.0195   1   9   0.0091   0.0143   0.0107  -0.0104   0.0047  -0.0045  -0.30    0.0    0.00000    0.00000    0.00000   0.00000  0.00000  0.00000  0.00000  0.00000  0.00000
2284 354156.800  -2169664.6359   4385182.1332   4078207.0308   1   9   0.0091   0.0143   0.0107  -0.0104   0.0047  -0.0045  -0.20    0.0    0.00000    0.00000    0.00000   0.00000  0.00000  0.00000  0.00000  0.00000  0.00000
2284 354156.900  -2169664.7823   4385182.0683   4078207.0283   1   9   0.0092   0.0143   0.0107  -0.0103   0.0048  -0.0043  -0.10    0.0    0.00000    0.00000    0.00000   0.00000  0.00000  0.00000  0.00000  0.00000  0.00000
2284 354157.000  -2169664.9211   4385181.9801   4078207.0292   1   9   0.0091   0.0143   0.0107  -0.0103   0.0047  -0.0044   0.00    0.0    0.00000    0.00000    0.00000   0.00000  0.00000  0.00000  0.00000  0.00000  0.00000
2284 354157.100  -2169665.0624   4385181.9058   4078207.0371   1   9   0.0091   0.0143   0.0107  -0.0103   0.0047  -0.0045   0.10    0.0    0.00000    0.00000    0.00000   0.00000  0.00000  0.00000  0.00000  0.00000  0.00000
2284 354157.200  -2169665.2012   4385181.8417   4078207.0546   1   9   0.0092   0.0143   0.0108  -0.0103   0.0048  -0.0044   0.20    0.0    0.00000    0.00000    0.00000   0.00000  0.00000  0.00000  0.00000  0.00000  0.00000
2284 354157.300  -2169665.3231   4385181.7555   4078207.0455   1   9   0.0081   0.0132   0.0107  -0.0092   0.0046  -0.0044   0.30    0.0    0.00000    0.00000    0.00000   0.00000  0.00000  0.00000  0.00000  0.00000  0.00000
2284 354157.400  -2169665.4483   4385181.6994   4078207.0487   1   9   0.0078   0.0129   0.0107  -0.0088   0.0046  -0.0043   0.40    0.0    0.00000    0.00000    0.00000   0.00000  0.00000  0.00000  0.00000  0.00000  0.00000
2284 354157.500  -2169665.5599   4385181.6462   4078207.0573   1   9   0.0077   0.0127   0.0108  -0.0087   0.0045  -0.0045   0.50    0.0    0.00000    0.00000    0.00000   0.00000  0.00000  0.00000  0.00000  0.00000  0.00000
2284 354157.600  -2169665.6744   4385181.5985   4078207.0770   1   9   0.0076   0.0126   0.0108  -0.0085   0.0045  -0.0043  -0.40    0.0    0.00000    0.00000    0.00000   0.00000  0.00000  0.00000  0.00000  0.00000  0.00000
2284 354157.700  -2169665.7995   4385181.5084   4078207.0946   1   9   0.0071   0.0121   0.0107  -0.0079   0.0046  -0.0041  -0.30    0.0    0.00000    0.00000    0.00000   0.00000  0.00000  0.00000  0.00000  0.00000  0.00000
2284 354157.800  -2169665.9527   4385181.4308   4078207.0990   1   9   0.0070   0.0121   0.0107  -0.0079   0.0045  -0.0042  -0.20    0.0    0.00000    0.00000    0.00000   0.00000  0.00000  0.00000  0.00000  0.00000  0.00000
2284 354157.900  -2169666.1102   4385181.3383   4078207.1085   1   9   0.0070   0.0121   0.0107  -0.0079   0.0046  -0.0041  -0.10    0.0    0.00000    0.00000    0.00000   0.00000  0.00000  0.00000  0.00000  0.00000  0.00000
2284 354158.000  -2169666.2709   4385181.2542   4078207.1136   1   9   0.0071   0.0121   0.0107  -0.0079   0.0045  -0.0042   0.00    0.0    0.00000    0.00000    0.00000   0.00000  0.00000  0.00000  0.00000  0.00000  0.00000
2284 354158.100  -2169666.4255   4385181.1544   4078207.1123   1   9   0.0072   0.0121   0.0107  -0.0079   0.0045  -0.0044   0.10    0.0    0.00000    0.00000    0.00000   0.00000  0.00000  0.00000  0.00000  0.00000  0.00000
2284 354158.200  -2169666.5757   4385181.0630   4078207.1123   1   9   0.0071   0.0121   0.0107  -0.0079   0.0045  -0.0042   0.20    0.0    0.00000    0.00000    0.00000   0.00000  0.00000  0.00000  0.00000  0.00000  0.00000
2284 354158.300  -2169666.6985   4385181.0068   4078207.1247   1   9   0.0072   0.0121   0.0107  -0.0079   0.0046  -0.0042   0.30    0.0    0.00000    0.00000    0.00000   0.00000  0.00000  0.00000  0.00000  0.00000  0.00000
2284 354158.400  -2169666.7974   4385180.9353   4078207.1250   1   9   0.0071   0.0121   0.0107  -0.0080   0.0046  -0.0043   0.40    0.0    0.00000    0.00000    0.00000   0.00000  0.00000  0.00000  0.00000  0.00000  0.00000
2284 354158.500  -2169666.8955   4385180.8879   4078207.1375   1   9   0.0072   0.0121   0.0108  -0.0079   0.0045  -0.0042   0.50    0.0    0.00000    0.00000    0.00000   0.00000  0.00000  0.00000  0.00000  0.00000  0.00000
2284 354158.600  -2169666.9803   4385180.8524   4078207.1609   1   9   0.0071   0.0121   0.0107  -0.0079   0.0045  -0.0044  -0.40    0.0    0.00000    0.00000    0.00000   0.00000  0.00000  0.00000  0.00000  0.00000  0.00000
2284 354158.700  -2169667.0822   4385180.8054   4078207.1546   1   9   0.0071   0.0121   0.0107  -0.0079   0.0046  -0.0040  -0.30    0.0    0.00000    0.00000    0.00000   0.00000  0.00000  0.00000  0.00000  0.00000  0.00000
2284 354158.800  -2169667.1766   4385180.7401   4078207.1575   1   9   0.0071   0.0121   0.0107  -0.0080   0.0046  -0.0043  -0.20    0.0    0.00000    0.00000    0.00000   0.00000  0.00000  0.00000  0.00000  0.00000  0.00000
2284 354158.900  -2169667.2907   4385180.6862   4078207.1613   1   9   0.0070   0.0121   0.0107  -0.0079   0.0045  -0.0042  -0.10    0.0    0.00000    0.00000    0.00000   0.00000  0.00000  0.00000  0.00000  0.00000  0.00000
2284 354159.000  -2169667.4059   4385180.6334   4078207.1522   1   9   0.0070   0.0121   0.0107  -0.0079   0.0046  -0.0040   0.00    0.0    0.00000    0.00000    0.00000   0.00000  0.00000  0.00000  0.00000  0.00000  0.00000
2284 354159.100  -2169667.5135   4385180.5644   4078207.1716   1   9   0.0070   0.0120   0.0107  -0.0079   0.0045  -0.0043   0.10    0.0    0.00000    0.00000    0.00000   0.00000  0.00000  0.00000  0.00000  0.00000  0.00000
2284 354159.200  -2169667.6429   4385180.5058   4078207.1725   1   9   0.0070   0.0121   0.0107  -0.0079   0.0045  -0.0042   0.20    0.0    0.00000    0.00000    0.00000   0.00000  0.00000  0.00000  0.00000  0.00000  0.00000
2284 354159.300  -2169667.7513   4385180.4187   4078207.1734   1   9   0.0071   0.0121   0.0107  -0.0079   0.0044  -0.0043   0.30    0.0    0.00000    0.00000    0.00000   0.00000  0.00000  0.00000  0.00000  0.00000  0.00000
2284 354159.400  -2169667.8731   4385180.3412   4078207.1859   1   9   0.0071   0.0121   0.0107  -0.0079   0.0046  -0.0041   0.40    0.0    0.00000    0.00000    0.00000   0.00000  0.00000  0.00000  0.00000  0.00000  0.00000
2284 354159.500  -2169668.0124   4385180.3047   4078207.2014   1   9   0.0071   0.0121   0.0108  -0.0080   0.0044  -0.0045   0.50    0.0    0.00000    0.00000    0.00000   0.00000  0.00000  0.00000  0.00000  0.00000  0.00000
2284 354159.600  -2169668.1216   4385180.2383   4078207.2145   1   9   0.0072   0.0121   0.0107  -0.0080   0.0045  -0.0044  -0.40    0.0    0.00000    0.00000    0.00000   0.00000  0.00000  0.00000  0.00000  0.00000  0.00000
2284 354159.700  -2169668.2347   4385180.1767   4078207.2217   1   9   0.0071   0.0121   0.0107  -0.0079   0.0044  -0.0044  -0.30    0.0    0.00000    0.00000    0.00000   0.00000  0.00000  0.00000  0.00000  0.00000  0.00000
2284 354159.800  -2169668.3562   4385180.0957   4078207.2248   1   9   0.0073   0.0121   0.0107  -0.0078   0.0045  -0.0042  -0.20    0.0    0.00000    0.00000    0.00000   0.00000  0.00000  0.00000  0.00000  0.00000  0.00000
2284 354159.900  -2169668.5003   4385180.0249   4078207.2324   1   9   0.0071   0.0121   0.0107  -0.0079   0.0045  -0.0042  -0.10    0.0    0.00000    0.00000    0.00000   0.00000  0.00000  0.00000  0.00000  0.00000  0.00000
2284 354160.000  -2169668.6612   4385179.9495   4078207.2367   1   9   0.0070   0.0121   0.0107  -0.0078   0.0046  -0.0039   0.00    0.0    0.00000    0.00000    0.00000   0.00000  0.00000  0.00000  0.00000  0.00000  0.00000
2284 354160.100  -2169668.8130   4385179.8701   4078207.2335   1   9   0.0072   0.0121   0.0107  -0.0079   0.0046  -0.0041   0.10    0.0    0.00000    0.00000    0.00000   0.00000  0.00000  0.00000  0.00000  0.00000  0.00000
2284 354160.200  -2169668.9591   4385179.7906   4078207.2547   1   9   0.0070   0.0120   0.0106  -0.0080   0.0045  -0.0042   0.20    0.0    0.00000    0.00000    0.00000   0.00000  0.00000  0.00000  0.00000  0.00000  0.00000
2284 354160.300  -2169669.1316   4385179.6947   4078207.2600   1   9   0.0070   0.0121   0.0108  -0.0079   0.0045  -0.0042   0.30    0.0    0.00000    0.00000    0.00000   0.00000  0.00000  0.00000  0.00000  0.00000  0.00000
2284 354160.400  -2169669.3061   4385179.5974   4078207.2670   1   9   0.0071   0.0121   0.0108  -0.0079   0.0045  -0.0044   0.40    0.0    0.00000    0.00000    0.00000   0.00000  0.00000  0.00000  0.00000  0.00000  0.00000
2284 354160.500  -2169669.4609   4385179.5159   4078207.2657   1   9   0.0070   0.0121   0.0108  -0.0079   0.0046  -0.0042   0.50    0.0    0.00000    0.00000    0.00000   0.00000  0.00000  0.00000  0.00000  0.00000  0.00000
2284 354160.600  -2169669.5842   4385179.4384   4078207.2676   1   9   0.0071   0.0121   0.0108  -0.0079   0.0047  -0.0041  -0.40    0.0    0.00000    0.00000    0.00000   0.00000  0.00000  0.00000  0.00000  0.00000  0.00000
2284 354160.700  -2169669.7306   4385179.3740   4078207.2610   1   9   0.0070   0.0121   0.0108  -0.0080   0.0045  -0.0043  -0.30    0.0    0.00000    0.00000    0.00000   0.00000  0.00000  0.00000  0.00000  0.00000  0.00000
2284 354160.800  -2169669.8858   4385179.3080   4078207.2676   1   9   0.0071   0.0121   0.0107  -0.0080   0.0046  -0.0043  -0.20    0.0    0.00000    0.00000    0.00000   0.00000  0.00000  0.00000  0.00000  0.00000  0.00000
2284 354160.900  -2169670.0516   4385179.2045   4078207.2673   1   9   0.0070   0.0121   0.0107  -0.0079   0.0045  -0.0044  -0.10    0.0    0.00000    0.00000    0.00000   0.00000  0.00000  0.00000  0.00000  0.00000  0.00000
2284 354161.000  -2169670.2488   4385179.1115   4078207.2781   1   9   0.0069   0.0120   0.0107  -0.0079   0.0044  -0.0041   0.00    0.0    0.00000    0.00000    0.00000   0.00000  0.00000  0.00000  0.00000  0.00000  0.00000
2284 354161.100  -2169670.4387   4385179.0185   4078207.2792   1   9   0.0071   0.0121   0.0107  -0.0078   0.0045  -0.0042   0.10    0.0    0.00000    0.00000    0.00000   0.00000  0.00000  0.00000  0.00000  0.00000  0.00000
2284 354161.200  -2169670.6062   4385178.9320   4078207.2757   1   9   0.0070   0.0120   0.0107  -0.0080   0.0044  -0.0043   0.20    0.0    0.00000    0.00000    0.00000   0.00000  0.00000  0.00000  0.00000  0.00000  0.00000
2284 354161.300  -2169670.7660   4385178.8406   4078207.2646   1   9   0.0070   0.0121   0.0107  -0.0080   0.0045  -0.0044   0.30    0.0    0.00000    0.00000    0.00000   0.00000  0.00000  0.00000  0.00000  0.00000  0.00000
2284 354161.400  -2169670.9070   4385178.7621   4078207.2562   1   9   0.0070   0.0121   0.0107  -0.0080   0.0045  -0.0043   0.40    0.0    0.00000    0.00000    0.00000   0.00000  0.00000  0.00000  0.00000  0.00000  0.00000
2284 354161.500  -2169671.0509   4385178.7010   4078207.2679   1  10   0.0070   0.0121   0.0107  -0.0080   0.0045  -0.0043   0.50    0.0    0.00000    0.00000    0.00000   0.00000  0.00000  0.00000  0.00000  0.00000  0.00000
2284 354161.600  -2169671.1864   4385178.6530   4078207.2749   1  10   0.0068   0.0114   0.0097  -0.0075   0.0062  -0.0053  -0.40    0.0    0.00000    0.00000    0.00000   0.00000  0.00000  0.00000  0.00000  0.00000  0.00000
2284 354161.700  -2169671.3091   4385178.5808   4078207.2694   1   9   0.0072   0.0121   0.0107  -0.0079   0.0045  -0.0044  -0.30    0.0    0.00000    0.00000    0.00000   0.00000  0.00000  0.00000  0.00000  0.00000  0.00000
2284 354161.800  -2169671.4198   4385178.5201   4078207.2655   1  10   0.0071   0.0121   0.0107  -0.0079   0.0045  -0.0042  -0.20    0.0    0.00000    0.00000    0.00000   0.00000  0.00000  0.00000  0.00000  0.00000  0.00000
2284 354161.900  -2169671.4988   4385178.4815   4078207.2691   1   9   0.0071   0.0121   0.0107  -0.0079   0.0045  -0.0042  -0.10    0.0    0.00000    0.00000    0.00000   0.00000  0.00000  0.00000  0.00000  0.00000  0.00000
2284 354162.000  -2169671.5644   4385178.4511   4078207.2726   1   9   0.0071   0.0121   0.0107  -0.0079   0.0046  -0.0041   0.00    0.0    0.00000    0.00000    0.00000   0.00000  0.00000  0.00000  0.00000  0.00000  0.00000
2284 354162.100  -2169671.6455   4385178.4024   4078207.2816   1  10   0.0071   0.0121   0.0107  -0.0079   0.0046  -0.0043   0.10    0.0    0.00000    0.00000    0.00000   0.00000  0.00000  0.00000  0.00000  0.00000  0.00000
2284 354162.200  -2169671.7106   4385178.3607   4078207.2902   1   9   0.0071   0.0121   0.0107  -0.0079   0.0045  -0.0043   0.20    0.0    0.00000    0.00000    0.00000   0.00000  0.00000  0.00000  0.00000  0.00000  0.00000
2284 354162.300  -2169671.7337   4385178.3633   4078207.2815   1   9   0.0070   0.0121   0.0107  -0.0079   0.0045  -0.0041   0.30    0.0    0.00000    0.00000    0.00000   0.00000  0.00000  0.00000  0.00000  0.00000  0.00000
2284 354162.400  -2169671.7062   4385178.3757   4078207.2850   1  10   0.0072   0.0121   0.0108  -0.0079   0.0046  -0.0042   0.40    0.0    0.00000    0.00000    0.00000   0.00000  0.00000  0.00000  0.00000  0.00000  0.00000
2284 354162.500  -2169671.7360   4385178.3739   4078207.2814   1   9   0.0072   0.0121   0.0108  -0.0079   0.0045  -0.0043   0.50    0.0    0.00000    0.00000    0.00000   0.00000  0.00000  0.00000  0.00000  0.00000  0.00000
2284 354162.600  -2169671.8153   4385178.3312   4078207.2733   1  10   0.0071   0.0121   0.0107  -0.0079   0.0046  -0.0042  -0.40    0.0    0.00000    0.00000    0.00000   0.00000  0.00000  0.00000  0.00000  0.00000  0.00000
2284 354162.700  -2169671.9325   4385178.2601   4078207.2540   1  10   0.0067   0.0114   0.0097  -0.0074   0.0062  -0.0053  -0.30    0.0    0.00000    0.00000    0.00000   0.00000  0.00000  0.00000  0.00000  0.00000  0.00000
2284 354162.800  -2169672.0832   4385178.2159   4078207.2579   1  10   0.0067   0.0111   0.0094  -0.0072   0.0066  -0.0055  -0.20    0.0    0.00000    0.00000    0.00000   0.00000  0.00000  0.00000  0.00000  0.00000  0.00000
2284 354162.900  -2169672.2379   4385178.1365   4078207.2665   1  10   0.0067   0.0110   0.0092  -0.0071   0.0069  -0.0055  -0.10    0.0    0.00000    0.00000    0.00000   0.00000  0.00000  0.00000  0.00000  0.00000  0.00000
2284 354163.000  -2169672.3550   4385178.0634   4078207.2880   1  10   0.0067   0.0109   0.0091  -0.0070   0.0071  -0.0058   0.00    0.0    0.00000    0.00000    0.00000   0.00000  0.00000  0.00000  0.00000  0.00000  0.00000
2284 354163.100  -2169672.4114   4385177.9864   4078207.3258   1  10   0.0066   0.0106   0.0086  -0.0068   0.0075  -0.0059   0.10    0.0    0.00000    0.00000    0.00000   0.00000  0.00000  0.00000  0.00000  0.00000  0.00000
2284 354163.200  -2169672.4162   4385177.9758   4078207.3219   1  10   0.0066   0.0106   0.0086  -0.0067   0.0076  -0.0060   0.20    0.0    0.00000    0.00000    0.00000   0.00000  0.00000  0.00000  0.00000  0.00000  0.00000
2284 354163.300  -2169672.4281   4385177.9927   4078207.3117   1  10   0.0065   0.0106   0.0085  -0.0068   0.0076  -0.0060   0.30    0.0    0.00000    0.00000    0.00000   0.00000  0.00000  0.00000  0.00000  0.00000  0.00000
2284 354163.400  -2169672.4933   4385177.9594   4078207.3011   1  10   0.0065   0.0107   0.0087  -0.0068   0.0076  -0.0059   0.40    0.0    0.00000    0.00000    0.00000   0.00000  0.00000  0.00000  0.00000  0.00000  0.00000
2284 354163.500  -2169672.6225   4385177.9078   4078207.2970   1  10   0.0064   0.0106   0.0086  -0.0070   0.0076  -0.0062   0.50    0.0    0.00000    0.00000    0.00000   0.00000  0.00000  0.00000  0.00000  0.00000  0.00000
2284 354163.600  -2169672.7849   4385177.8389   4078207.2890   1  10   0.0065   0.0106   0.0086  -0.0068   0.0075  -0.0060  -0.40    0.0    0.00000    0.00000    0.00000   0.00000  0.00000  0.00000  0.00000  0.00000  0.00000
2284 354163.700  -2169672.9559   4385177.7696   4078207.2738   1  10   0.0065   0.0106   0.0086  -0.0069   0.0076  -0.0061  -0.30    0.0    0.00000    0.00000    0.00000   0.00000  0.00000  0.00000  0.00000  0.00000  0.00000
2284 354163.800  -2169673.1219   4385177.6676   4078207.2882   1  10   0.0066   0.0106   0.0086  -0.0068   0.0075  -0.0059  -0.20    0.0    0.00000    0.00000    0.00000   0.00000  0.00000  0.00000  0.00000  0.00000  0.00000
2284 354163.900  -2169673.2864   4385177.5600   4078207.3165   1  10   0.0066   0.0107   0.0086  -0.0067   0.0076  -0.0060  -0.10    0.0    0.00000    0.00000    0.00000   0.00000  0.00000  0.00000  0.00000  0.00000  0.00000
2284 354164.000  -2169673.4482   4385177.4920   4078207.3084   1  10   0.0064   0.0106   0.0086  -0.0069   0.0075  -0.0061   0.00    0.0    0.00000    0.00000    0.00000   0.00000  0.00000  0.00000  0.00000  0.00000  0.00000
2284 354164.100  -2169673.5921   4385177.4167   4078207.2885   1  10   0.0065   0.0106   0.0085  -0.0067   0.0075  -0.0060   0.10    0.0    0.00000    0.00000    0.00000   0.00000  0.00000  0.00000  0.00000  0.00000  0.00000
2284 354164.200  -2169673.7238   4385177.3545   4078207.3061   1  10   0.0063   0.0106   0.0086  -0.0068   0.0076  -0.0058   0.20    0.0    0.00000    0.00000    0.00000   0.00000  0.00000  0.00000  0.00000  0.00000  0.00000
2284 354164.300  -2169673.8473   4385177.2825   4078207.3120   1  10   0.0065   0.0106   0.0086  -0.0069   0.0075  -0.0060   0.30    0.0    0.00000    0.00000    0.00000   0.00000  0.00000  0.00000  0.00000  0.00000  0.00000
2284 354164.400  -2169673.9610   4385177.2206   4078207.3084   1  10   0.0065   0.0106   0.0087  -0.0069   0.0076  -0.0061   0.40    0.0    0.00000    0.00000    0.00000   0.00000  0.00000  0.00000  0.00000  0.00000  0.00000
2284 354164.500  -2169674.0862   4385177.1309   4078207.3060   1  10   0.0066   0.0106   0.0087  -0.0068   0.0076  -0.0060   0.50    0.0    0.00000    0.00000    0.00000   0.00000  0.00000  0.00000  0.00000  0.00000  0.00000
2284 354164.600  -2169674.2406   4385177.0983   4078207.2829   1  10   0.0065   0.0106   0.0086  -0.0068   0.0077  -0.0061  -0.40    0.0    0.00000    0.00000    0.00000   0.00000  0.00000  0.00000  0.00000  0.00000  0.00000
2284 354164.700  -2169674.3798   4385177.0732   4078207.2671   1  10   0.0064   0.0106   0.0086  -0.0069   0.0076  -0.0060  -0.30    0.0    0.00000    0.00000    0.00000   0.00000  0.00000  0.00000  0.00000  0.00000  0.00000
2284 354164.800  -2169674.4741   4385177.0482   4078207.2240   1  10   0.0066   0.0106   0.0085  -0.0067   0.0077  -0.0059  -0.20    0.0    0.00000    0.00000    0.00000   0.00000  0.00000  0.00000  0.00000  0.00000  0.00000
2284 354164.900  -2169674.5400   4385177.0009   4078207.2409   1  10   0.0064   0.0105   0.0086  -0.0069   0.0075  -0.0061  -0.10    0.0    0.00000    0.00000    0.00000   0.00000  0.00000  0.00000  0.00000  0.00000  0.00000
2284 354165.000  -2169674.6287   4385176.9755   4078207.2219   1  10   0.0066   0.0106   0.0085  -0.0068   0.0075  -0.0060   0.00    0.0    0.00000    0.00000    0.00000   0.00000  0.00000  0.00000  0.00000  0.00000  0.00000
2284 354165.100  -2169674.7350   4385176.9223   4078207.2390   1   9   0.0071   0.0121   0.0107  -0.0079   0.0045  -0.0042   0.10    0.0    0.00000    0.00000    0.00000   0.00000  0.00000  0.00000  0.00000  0.00000  0.00000
2284 354165.200  -2169674.8233   4385176.8555   4078207.2394   1   9   0.0071   0.0121   0.0107  -0.0079   0.0046  -0.0043   0.20    0.0    0.00000    0.00000    0.00000   0.00000  0.00000  0.00000  0.00000  0.00000  0.00000
2284 354165.300  -2169674.9365   4385176.8280   4078207.2383   1   9   0.0072   0.0121   0.0107  -0.0079   0.0045  -0.0044   0.30    0.0    0.00000    0.00000    0.00000   0.00000  0.00000  0.00000  0.00000  0.00000  0.00000
2284 354165.400  -2169675.0399   4385176.7689   4078207.2200   1   9   0.0070   0.0121   0.0107  -0.0079   0.0045  -0.0043   0.40    0.0    0.00000    0.00000    0.00000   0.00000  0.00000  0.00000  0.00000  0.00000  0.00000
2284 354165.500  -2169675.1904   4385176.7021   4078207.2239   1   9   0.0071   0.0121   0.0108  -0.0080   0.0046  -0.0042   0.50    0.0    0.00000    0.00000    0.00000   0.00000  0.00000  0.00000  0.00000  0.00000  0.00000
2284 354165.600  -2169675.3734   4385176.6139   4078207.2386   1   9   0.0070   0.0121   0.0107  -0.0080   0.0045  -0.0043  -0.40    0.0    0.00000    0.00000    0.00000   0.00000  0.00000  0.00000  0.00000  0.00000  0.00000
2284 354165.700  -2169675.5808   4385176.4950   4078207.2254   1   9   0.0070   0.0121   0.0107  -0.0079   0.0046  -0.0043  -0.30    0.0    0.00000    0.00000    0.00000   0.00000  0.00000  0.00000  0.00000  0.00000  0.00000
2284 354165.800  -2169675.8141   4385176.3923   4078207.2365   1   9   0.0072   0.0121   0.0107  -0.0079   0.0045  -0.0041  -0.20    0.0    0.00000    0.00000    0.00000   0.00000  0.00000  0.00000  0.00000  0.00000  0.00000
2284 354165.900  -2169676.0460   4385176.2838   4078207.2310   1   9   0.0070   0.0121   0.0107  -0.0079   0.0045  -0.0042  -0.10    0.0    0.00000    0.00000    0.00000   0.00000  0.00000  0.00000  0.00000  0.00000  0.00000
2284 354166.000  -2169676.2384   4385176.1916   4078207.2243   1   9   0.0070   0.0120   0.0107  -0.0079   0.0045  -0.0042   0.00    0.0    0.00000    0.00000    0.00000   0.00000  0.00000  0.00000  0.00000  0.00000  0.00000
2284 354166.100  -2169676.3875   4385176.1016   4078207.2158   1   9   0.0070   0.0121   0.0107  -0.0079   0.0045  -0.0042   0.10    0.0    0.00000    0.00000    0.00000   0.00000  0.00000  0.00000  0.00000  0.00000  0.00000
2284 354166.200  -2169676.5408   4385176.0254   4078207.2258   1   9   0.0070   0.0121   0.0107  -0.0079   0.0046  -0.0039   0.20    0.0    0.00000    0.00000    0.00000   0.00000  0.00000  0.00000  0.00000  0.00000  0.00000
2284 354166.300  -2169676.6807   4385175.9389   4078207.2252   1   9   0.0070   0.0121   0.0107  -0.0079   0.0045  -0.0042   0.30    0.0    0.00000    0.00000    0.00000   0.00000  0.00000  0.00000  0.00000  0.00000  0.00000
2284 354166.400  -2169676.8165   4385175.8726   4078207.2172   1   9   0.0071   0.0121   0.0107  -0.0079   0.0046  -0.0040   0.40    0.0    0.00000    0.00000    0.00000   0.00000  0.00000  0.00000  0.00000  0.00000  0.00000
2284 354166.500  -2169676.9392   4385175.8241   4078207.2221   1   9   0.0070   0.0121   0.0108  -0.0079   0.0044  -0.0043   0.50    0.0    0.00000    0.00000    0.00000   0.00000  0.00000  0.00000  0.00000  0.00000  0.00000
2284 354166.600  -2169677.0600   4385175.7750   4078207.2319   1   9   0.0070   0.0121   0.0108  -0.0079   0.0045  -0.0042  -0.40    0.0    0.00000    0.00000    0.00000   0.00000  0.00000  0.00000  0.00000  0.00000  0.00000
2284 354166.700  -2169677.1576   4385175.6977   4078207.2315   1   9   0.0072   0.0121   0.0107  -0.0079   0.0045  -0.0042  -0.30    0.0    0.00000    0.00000    0.00000   0.00000  0.00000  0.00000  0.00000  0.00000  0.00000
2284 354166.800  -2169677.2459   4385175.6359   4078207.2191   1   9   0.0069   0.0120   0.0107  -0.0079   0.0045  -0.0042  -0.20    0.0    0.00000    0.00000    0.00000   0.00000  0.00000  0.00000  0.00000  0.00000  0.00000
2284 354166.900  -2169677.3371   4385175.6093   4078207.2174   1   9   0.0072   0.0120   0.0107  -0.0079   0.0046  -0.0042  -0.10    0.0    0.00000    0.00000    0.00000   0.00000  0.00000  0.00000  0.00000  0.00000  0.00000
2284 354167.000  -2169677.4254   4385175.5621   4078207.2314   1   9   0.0070   0.0120   0.0107  -0.0079   0.0044  -0.0044   0.00    0.0    0.00000    0.00000    0.00000   0.00000  0.00000  0.00000  0.00000  0.00000  0.00000
2284 354167.100  -2169677.5338   4385175.5140   4078207.2313   1   9   0.0071   0.0121   0.0107  -0.0079   0.0045  -0.0044   0.10    0.0    0.00000    0.00000    0.00000   0.00000  0.00000  0.00000  0.00000  0.00000  0.00000
2284 354167.200  -2169677.6317   4385175.4458   4078207.2477   1   9   0.0071   0.0121   0.0107  -0.0079   0.0046  -0.0042   0.20    0.0    0.00000    0.00000    0.00000   0.00000  0.00000  0.00000  0.00000  0.00000  0.00000
2284 354167.300  -2169677.7245   4385175.3972   4078207.2563   1   9   0.0071   0.0121   0.0107  -0.0079   0.0045  -0.0042   0.30    0.0    0.00000    0.00000    0.00000   0.00000  0.00000  0.00000  0.00000  0.00000  0.00000
2284 354167.400  -2169677.8238   4385175.3545   4078207.2565   1   9   0.0071   0.0121   0.0107  -0.0079   0.0046  -0.0042   0.40    0.0    0.00000    0.00000    0.00000   0.00000  0.00000  0.00000  0.00000  0.00000  0.00000
