     3.03           OBSERVATION DATA    M: Mixed            RINEX VERSION / TYPE
RTKCONV demo5 b34d                      20231019 091324 UTC PGM / RUN BY / DATE 
format: RTCM 3                                              COMMENT             
log: F:\rosbag_1019\base\dataset1\base_lowrate              COMMENT             
0000                                                        MARKER NAME         
                                                            MARKER NUMBER       
                                                            MARKER TYPE         
                                                            OBSERVER / AGENCY   
                                                            REC # / TYPE / VERS 
                                                            ANT # / TYPE        
 -2170102.3037  4385072.0168  4078164.1454                  APPROX POSITION XYZ 
        0.0000        0.0000        0.0000                  ANTENNA: DELTA H/E/N
G    6 C1C L1C S1C C2X L2X S2X                              SYS / # / OBS TYPES 
R    6 C1C L1C S1C C2C L2C S2C                              SYS / # / OBS TYPES 
C    6 C2I L2I S2I C7I L7I S7I                              SYS / # / OBS TYPES 
  2023    10    19    02    22   12.0000000     GPS         TIME OF FIRST OBS   
  2023    10    19    02    31   32.0000000     GPS         TIME OF LAST OBS    
G L1C                                                       SYS / PHASE SHIFT   
G L2X -0.25000                                              SYS / PHASE SHIFT   
R L1C                                                       SYS / PHASE SHIFT   
R L2C                                                       SYS / PHASE SHIFT   
C L2I                                                       SYS / PHASE SHIFT   
C L7I                                                       SYS / PHASE SHIFT   
  9 R01  1 R02 -4 R08  6 R09 -2 R10 -7 R11  0 R17  4 R23  3 GLONASS SLOT / FRQ #
    R24  2                                                  GLONASS SLOT / FRQ #
 C1C    0.000 C1P    0.000 C2C    0.000 C2P    0.000        GLONASS COD/PHS/BIS 
                                                            END OF HEADER       
> 2023 10 19 02 22 12.0000000  0 31                     
G05  22456673.751   118010530.6731         45.000    22456713.170    91956352.0821         40.000  
G13  21632094.910   113677389.9331         46.000                                                  
G15  19891321.639   104529626.7951         50.000    19891357.019    81451799.4081         44.000  
G18  20788905.964   109246463.8881         46.000    20788943.042    85127257.0691         44.000  
G23  22080011.740   116031293.9221         47.000    22080049.658    90414130.9191         43.000  
G24  21463112.491   112789482.8661         45.000    21463153.554    87888118.5111         43.000  
G29  24791716.689   130281178.1601         40.000    24791760.129   101518067.0951         34.000  
C01  37782737.474   196744530.6891         44.000    37782775.285   152135529.9991         44.000  
C02  38196233.170   198897727.6331         41.000    38196266.085   153800524.5641         43.000  
C03  37456118.806   195043761.3011         45.000    37456153.865   150820335.1971         45.000  
C04  38770726.493   201889240.6851         40.000    38770767.467   156113765.9461         44.000  
C05  39816336.017   207333982.0421         34.000    39816374.847   160323866.2561         40.000  
C06  37951308.351   197622461.0761         43.000    37951342.963   152814352.9831         43.000  
C08  35801490.129   186427746.7821         47.000    35801522.651   144157883.6061         49.000  
C09  38976791.155   202962400.3421         39.000    38976830.609   156943560.5501         42.000  
C13  35944427.231   187172067.6861         48.000    35944468.348   144733475.1561         49.000  
C14  22082850.860   114991170.7361         47.000    22082886.669    88918588.9161         51.000  
C16  37395800.025   194729779.8281         45.000    37395841.356   150577576.2501         45.000  
C24  24058880.915   125280967.5421         45.000                                                  
C26  24723844.529   128743582.9281         43.000                                                  
C27  24731161.126   128781668.6211         41.000                                                  
C28  23168306.590   120643434.0421         47.000                                                  
C33  22150610.231   115344030.8861         50.000                                                  
R01  20018401.073   107009847.0751         48.000    20018438.366    83230056.7831         44.000  
R02  23179317.160   123689316.6191         44.000    23179356.936    96202957.9421         39.000  
R08  21044346.113   112691479.8161         46.000    21044380.528    87648996.7721         43.000  
R09  23454608.293   125246300.5171         38.000    23454645.013    97413960.0581         35.000  
R10  22061615.634   117600887.8781         48.000                                                  
R17  22626187.272   121077323.3721         43.000    22626229.157    94171414.8071         41.000  
R23  21392876.277   114437383.8201         45.000                                                  
R24  20002414.999   106961930.9981         51.000    20002452.595    83192761.9261         47.000  
> 2023 10 19 02 22 13.0000000  0 31                     
G05  22457133.056   118012944.260          45.000    22457172.171    91958232.803          40.000  
G13  21632622.439   113680161.766          46.000                                                  
G15  19891437.180   104530233.739          50.000    19891472.418    81452272.349          44.000  
G18  20788750.271   109245645.324          46.000    20788787.170    85126619.224          44.000  
G23  22079555.758   116028897.308          47.000    22079593.408    90412263.430          43.000  
G24  21462566.128   112786611.039          45.000    21462606.923    87885880.730          43.000  
G29  24792329.990   130284401.402          40.000    24792373.912   101520578.712          34.000  
C01  37782742.692   196744558.173          44.000    37782780.467   152135551.262          44.000  
C02  38196230.490   198897713.801          41.000    38196263.422   153800513.868          43.000  
C03  37456123.327   195043785.226          45.000    37456158.422   150820353.700          45.000  
C04  38770733.337   201889275.625          40.000    38770774.275   156113792.961          44.000  
C05  39816329.316   207333945.779          34.000    39816367.771   160323838.228          40.000  
C06  37951055.379   197621142.320          43.000    37951089.741   152813333.233          43.000  
C08  35801437.005   186427470.189          47.000    35801469.580   144157669.727          49.000  
C09  38976540.595   202961096.588          38.000    38976580.068   156942552.415          42.000  
C13  35944342.479   187171626.848          48.000    35944383.738   144733134.274          49.000  
C14  22083056.693   114992242.529          47.000    22083092.467    88919417.690          51.000  
C16  37395579.807   194728631.942          45.000    37395620.959   150576688.627          45.000  
C24  24058463.780   125278795.047          45.000                                                  
C26  24723887.022   128743805.707          43.000                                                  
C27  24730888.713   128780248.398          40.000                                                  
C28  23168529.666   120644596.145          47.000                                                  
C33  22150573.331   115343839.005          50.000                                                  
R01  20018268.038   107009136.277          48.000    20018305.528    83229503.935          44.000  
R02  23178814.594   123686636.432          44.000    23178854.656    96200873.380          39.000  
R08  21044753.348   112693660.568          46.000    21044788.085    87650692.896          43.000  
R09  23454931.257   125248031.231          39.000    23454969.569    97415306.160          35.000  
R10  22061411.445   117599799.639          48.000                                                  
R17  22625551.492   121073919.411          43.000    22625593.288    94168767.283          40.000  
R23  21393614.143   114441333.582          45.000                                                  
R24  20002465.586   106962200.158          51.000    20002502.843    83192971.272          47.000  
> 2023 10 19 02 22 14.0000000  0 31                     
G05  22457592.379   118015358.078          45.000    22457631.405    91960113.696          40.000  
G13  21633149.879   113682933.831          46.000                                                  
G15  19891552.757   104530841.132          50.000    19891588.102    81452745.651          44.000  
G18  20788594.792   109244827.370          46.000    20788631.495    85125981.855          44.000  
G23  22079099.830   116026500.797          47.000    22079137.176    90410396.016          43.000  
G24  21462019.836   112783739.669          45.000    21462060.578    87883643.295          43.000  
G29  24792943.112   130287624.592          40.000    24792987.892   101523090.272          34.000  
C01  37782747.999   196744585.631          44.000    37782785.863   152135572.501          44.000  
C02  38196227.881   198897699.960          41.000    38196260.652   153800503.163          43.000  
C03  37456127.991   195043809.140          45.000    37456163.067   150820372.178          45.000  
C04  38770740.109   201889310.542          40.000    38770781.065   156113819.956          44.000  
C05  39816322.455   207333910.456          34.000    39816360.730   160323810.138          40.000  
C06  37950802.122   197619823.655          43.000    37950836.216   152812313.541          43.000  
C08  35801383.809   186427193.619          47.000    35801416.455   144157455.864          49.000  
C09  38976290.375   202959792.906          39.000    38976329.616   156941544.330          42.000  
C13  35944257.851   187171185.998          48.000    35944299.039   144732793.383          49.000  
C14  22083262.544   114993314.450          47.000    22083298.425    88920246.567          51.000  
C16  37395359.178   194727484.160          45.000    37395400.473   150575801.089          45.000  
C24  24058046.735   125276622.857          45.000                                                  
C26  24723929.818   128744028.986          43.000                                                  
C27  24730615.513   128778828.653          41.000                                                  
C28  23168752.994   120645758.727          47.000                                                  
C33  22150536.574   115343647.307          50.000                                                  
R01  20018135.182   107008425.780          48.000    20018172.653    83228951.322          44.000  
R02  23178311.831   123683956.400          44.000    23178352.733    96198788.904          39.000  
R08  21045160.100   112695841.443          46.000    21045195.356    87652389.130          43.000  
R09  23455256.009   125249762.674          39.000    23455293.391    97416652.874          35.000  
R10  22061207.577   117598712.186          48.000                                                  
R17  22624915.230   121070515.973          44.000    22624957.883    94166120.172          40.000  
R23  21394352.759   114445283.769          45.000                                                  
R24  20002516.209   106962470.244          51.000    20002553.591    83193181.332          47.000  
> 2023 10 19 02 22 15.0000000  0 31                     
G05  22458051.792   118017772.155          45.000    22458090.711    91961994.784          40.000  
G13  21633677.497   113685706.201          46.000                                                  
G15  19891668.405   104531449.026          50.000    19891703.750    81453219.331          44.000  
G18  20788439.296   109244010.108          46.000    20788475.928    85125345.028          44.000  
G23  22078643.938   116024104.470          47.000    22078681.052    90408528.747          43.000  
G24  21461473.580   112780868.819          45.000    21461514.429    87881406.267          43.000  
G29  24793556.466   130290847.822          40.000    24793600.942   101525601.851          35.000  
C01  37782753.181   196744613.141          44.000    37782791.296   152135593.763          44.000  
C02  38196225.343   198897686.153          41.000    38196258.169   153800492.496          43.000  
C03  37456132.619   195043833.103          45.000    37456167.660   150820390.712          45.000  
C04  38770746.792   201889345.496          40.000    38770787.820   156113846.990          44.000  
C05  39816315.521   207333874.236          34.000    39816353.851   160323782.106          40.000  
C06  37950549.114   197618505.108          43.000    37950582.922   152811293.976          43.000  
C08  35801330.773   186426917.159          47.000    35801363.420   144157242.079          49.000  
C09  38976039.655   202958489.349          38.000    38976079.289   156940536.351          42.000  
C13  35944173.027   187170745.223          48.000    35944214.429   144732452.542          49.000  
C14  22083468.449   114994386.594          47.000    22083504.312    88921075.609          51.000  
C16  37395138.782   194726336.547          45.000    37395179.630   150574913.675          45.000  
C24  24057629.636   125274451.022          45.000                                                  
C26  24723973.258   128744252.855          43.000                                                  
C27  24730342.671   128777409.456          40.000                                                  
C28  23168976.338   120646921.873          48.000                                                  
C33  22150499.854   115343455.862          50.000                                                  
R01  20018002.397   107007715.653          49.000    20018039.779    83228399.008          44.000  
R02  23177809.050   123681276.586          44.000    23177850.292    96196704.618          40.000  
R08  21045566.960   112698022.506          46.000    21045603.091    87654085.517          43.000  
R09  23455580.886   125251494.906          39.000    23455617.070    97418000.154          35.000  
R10  22061004.014   117597625.606          48.000                                                  
R17  22624279.093   121067113.144          44.000    22624322.354    94163473.527          40.000  
R23  21395091.071   114449234.431          45.000                                                  
R24  20002567.082   106962741.288          51.000    20002604.696    83193392.142          47.000  
> 2023 10 19 02 22 16.0000000  0 31                     
G05  22458511.044   118020185.754          45.000    22458550.302    91963875.507          40.000  
G13  21634205.045   113688478.116          46.000                                                  
G15  19891784.089   104532056.683          50.000    19891819.202    81453692.825          44.000  
G18  20788283.585   109243192.776          46.000    20788320.521    85124708.148          44.000  
G23  22078187.867   116021707.560          47.000    22078225.070    90406661.022          43.000  
G24  21460927.271   112777997.720          45.000    21460968.351    87879169.051          43.000  
G29  24794169.856   130294070.304          40.000    24794214.618   101528112.866          35.000  
C01  37782758.345   196744639.939          44.000    37782796.335   152135614.478          44.000  
C02  38196222.484   198897671.655          41.000    38196255.327   153800481.258          43.000  
C03  37456137.175   195043856.359          46.000    37456172.091   150820408.691          45.000  
C04  38770753.386   201889379.735          40.000    38770794.360   156113873.454          44.000  
C05  39816308.231   207333836.255          34.000    39816346.667   160323753.533          40.000  
C06  37950295.606   197617185.966          43.000    37950329.540   152810273.929          43.000  
C08  35801277.470   186426640.031          47.000    35801310.188   144157027.790          49.000  
C09  38975789.364   202957185.158          39.000    38975828.604   156939527.857          42.000  
C13  35944088.399   187170303.794          48.000    35944129.641   144732111.203          49.000  
C14  22083674.264   114995458.210          47.000    22083710.038    88921904.248          51.000  
C16  37394918.331   194725188.341          45.000    37394959.323   150574025.825          45.000  
C24  24057212.359   125272278.815          45.000                                                  
C26  24724015.786   128744476.538          43.000                                                  
C27  24730070.276   128775990.045          41.000                                                  
C28  23169199.773   120648084.822          48.000                                                  
C33  22150462.990   115343263.915          50.000                                                  
R01  20017869.488   107007005.117          49.000    20017906.298    83227846.374          44.000  
R02  23177306.520   123678596.235          44.000    23177348.011    96194619.907          40.000  
R08  21045974.034   112700202.983          46.000    21046010.666    87655781.422          43.000  
R09  23455905.459   125253227.138          39.000    23455942.269    97419347.441          35.000  
R10  22060800.074   117596539.103          47.000                                                  
R17  22623643.331   121063710.112          43.000    22623685.913    94160826.727          40.000  
R23  21395829.366   114453184.797          45.000                                                  
R24  20002618.205   106963012.511          51.000    20002655.158    83193603.093          47.000  
> 2023 10 19 02 22 17.0000000  0 31                     
G05  22458970.599   118022600.608          45.000    22459009.607    91965757.208          40.000  
G13  21634732.860   113691251.302          46.000                                                  
G15  19891900.005   104532665.807          50.000    19891935.136    81454167.465          44.000  
G18  20788128.322   109242377.105          46.000    20788165.239    85124072.551          44.000  
G23  22077732.028   116019311.797          47.000    22077769.106    90404794.201          43.000  
G24  21460381.157   112775128.126          45.000    21460422.453    87876933.006          43.000  
G29  24794783.192   130297293.787          40.000    24794828.222   101530624.662          34.000  
C01  37782763.652   196744667.741          44.000    37782801.713   152135635.987          44.000  
C02  38196219.840   198897658.155          41.000    38196252.665   153800470.832          43.000  
C03  37456141.821   195043880.625          46.000    37456176.755   150820427.456          45.000  
C04  38770760.337   201889415.000          40.000    38770801.150   156113900.724          44.000  
C05  39816301.298   207333800.321          34.000    39816339.877   160323725.730          40.000  
C06  37950042.223   197615867.948          43.000    37950076.675   152809254.741          43.000  
C08  35801224.381   186426363.944          47.000    35801257.171   144156814.300          49.000  
C09  38975539.662   202955882.052          38.000    38975578.098   156938520.210          42.000  
C13  35944003.968   187169863.404          48.000    35944045.120   144731770.656          49.000  
C14  22083880.098   114996530.980          47.000    22083916.068    88922733.784          51.000  
C16  37394698.114   194724041.266          45.000    37394739.105   150573138.845          45.000  
C24  24056795.885   125270107.930          45.000                                                  
C26  24724059.422   128744701.783          43.000                                                  
C27  24729798.023   128774572.134          41.000                                                  
C28  23169423.350   120649249.292          48.000                                                  
C33  22150426.197   115343073.176          50.000                                                  
R01  20017736.953   107006295.943          49.000    20017774.174    83227294.791          44.000  
R02  23176804.614   123675917.070          44.000    23176846.803    96192536.113          40.000  
R08  21046381.609   112702384.608          46.000    21046418.240    87657478.244          43.000  
R09  23456230.889   125254961.118          40.000    23456267.950    97420696.106          36.000  
R10  22060596.189   117595454.415          48.000                                                  
R17  22623007.354   121060308.631          44.000    22623050.008    94158181.137          40.000  
R23  21396568.518   114457136.627          45.000                                                  
R24  20002669.525   106963285.696          52.000    20002706.246    83193815.568          47.000  
> 2023 10 19 02 22 18.0000000  0 31                     
G05  22459430.173   118025014.975          45.000    22459469.181    91967638.531          40.000  
G13  21635260.425   113694024.024          46.000                                                  
G15  19892015.815   104533274.670          50.000    19892051.124    81454641.901          44.000  
G18  20787973.379   109241561.352          46.000    20788009.921    85123436.899          44.000  
G23  22077275.993   116016915.439          47.000    22077313.232    90402926.922          43.000  
G24  21459835.116   112772258.270          45.000    21459876.358    87874696.768          43.000  
G29  24795396.886   130300516.542          40.000    24795441.970   101533135.895          35.000  
C01  37782768.995   196744694.824          44.000    37782807.002   152135656.929          44.000  
C02  38196216.748   198897643.938          41.000    38196249.985   153800459.832          43.000  
C03  37456146.271   195043904.157          45.000    37456181.276   150820445.649          45.000  
C04  38770767.092   201889449.516          40.000    38770807.815   156113927.427          44.000  
C05  39816294.204   207333764.614          34.000    39816332.997   160323697.361          40.000  
C06  37949789.002   197614549.315          43.000    37949823.471   152808235.096          43.000  
C08  35801171.221   186426087.197          47.000    35801204.046   144156600.297          49.000  
C09  38975289.442   202954578.300          39.000    38975327.485   156937512.073          42.000  
C13  35943919.251   187169422.306          48.000    35943960.385   144731429.581          49.000  
C14  22084086.092   114997603.203          47.000    22084122.080    88923562.890          51.000  
C16  37394477.806   194722893.609          45.000    37394518.816   150572251.388          45.000  
C24  24056379.126   125267936.657          45.000                                                  
C26  24724102.415   128744926.839          43.000                                                  
C27  24729525.646   128773154.000          40.000                                                  
C28  23169647.070   120650413.552          48.000                                                  
C33  22150389.441   115342881.927          50.000                                                  
R01  20017604.186   107005586.347          48.000    20017641.747    83226742.884          44.000  
R02  23176302.173   123673237.298          44.000    23176343.647    96190451.870          40.000  
R08  21046788.522   112704565.614          46.000    21046825.207    87659174.577          43.000  
R09  23456555.444   125256695.085          40.000    23456592.969    97422044.727          36.000  
R10  22060392.571   117594369.781          47.000                                                  
R17  22622371.271   121056906.961          44.000    22622414.514    94155535.392          40.000  
R23  21397307.491   114461088.137          46.000                                                  
R24  20002720.809   106963559.084          52.000    20002757.423    83194028.203          47.000  
> 2023 10 19 02 22 19.0000000  0 31                     
G05  22459889.639   118027429.727          45.000    22459928.593    91969520.130          40.000  
G13  21635788.061   113696797.140          46.000                                                  
G15  19892131.838   104533884.134          50.000    19892167.165    81455116.811          44.000  
G18  20787818.276   109240746.377          46.000    20787854.783    85122801.869          43.000  
G23  22076819.975   116014519.373          47.000    22076857.375    90401059.849          43.000  
G24  21459289.199   112769389.049          45.000    21459330.316    87872461.000          43.000  
G29  24796010.240   130303739.379          40.000    24796055.056   101535647.195          34.000  
C01  37782774.106   196744722.055          44.000    37782812.310   152135677.968          44.000  
C02  38196214.264   198897629.882          41.000    38196247.251   153800448.968          43.000  
C03  37456150.881   195043927.844          46.000    37456185.850   150820463.978          45.000  
C04  38770773.596   201889484.214          40.000    38770814.266   156113954.244          44.000  
C05  39816287.110   207333727.074          34.000    39816325.635   160323669.114          40.000  
C06  37949536.155   197613230.902          43.000    37949570.267   152807215.622          43.000  
C08  35801118.221   186425810.633          47.000    35801151.011   144156386.449          49.000  
C09  38975039.079   202953274.790          38.000    38975077.319   156936504.094          42.000  
C13  35943834.570   187168981.392          48.000    35943875.650   144731088.638          49.000  
C14  22084292.104   114998675.749          47.000    22084328.038    88924392.249          51.000  
C16  37394257.392   194721746.217          45.000    37394298.133   150571364.140          45.000  
C24  24055962.206   125265765.871          45.000                                                  
C26  24724145.604   128745152.575          43.000                                                  
C27  24729252.893   128771736.522          40.000                                                  
C28  23169870.755   120651578.466          48.000                                                  
C33  22150352.702   115342691.020          50.000                                                  
R01  20017471.312   107004877.211          48.000    20017508.926    83226191.343          44.000  
R02  23175800.911   123670557.859          44.000    23175841.421    96188367.842          40.000  
R08  21047195.364   112706746.917          46.000    21047232.139    87660871.139          43.000  
R09  23456881.215   125258429.942          40.000    23456917.900    97423394.066          36.000  
R10  22060189.240   117593286.064          47.000                                                  
R17  22621736.420   121053505.988          44.000    22621778.859    94152890.205          40.000  
R23  21398046.054   114465040.239          45.000                                                  
R24  20002772.343   106963833.565          52.000    20002808.903    83194241.681          47.000  
> 2023 10 19 02 22 20.0000000  0 31                     
G05  22460349.284   118029845.230          45.000    22460388.077    91971402.349          40.000  
G13  21636315.912   113699571.056          46.000                                                  
G15  19892248.023   104534494.596          50.000    19892283.135    81455592.489          44.000  
G18  20787663.316   109239932.584          46.000    20787699.804    85122167.736          43.000  
G23  22076364.190   116012123.971          47.000    22076401.751    90399193.302          43.000  
G24  21458743.408   112766520.843          45.000    21458784.632    87870226.050          43.000  
G29  24796623.773   130306962.780          40.000    24796668.839   101538158.929          34.000  
C01  37782779.377   196744749.818          44.000    37782817.527   152135699.441          44.000  
C02  38196211.638   198897616.344          41.000    38196244.660   153800438.497          43.000  
C03  37456155.491   195043952.077          46.000    37456190.443   150820482.701          45.000  
C04  38770780.618   201889519.418          40.000    38770821.056   156113981.469          44.000  
C05  39816279.926   207333691.073          34.000    39816318.702   160323641.285          40.000  
C06  37949283.415   197611913.132          43.000    37949317.206   152806196.630          43.000  
C08  35801065.168   186425534.636          47.000    35801098.011   144156173.031          49.000  
C09  38974789.181   202951971.887          39.000    38974827.331   156935496.611          42.000  
C13  35943749.924   187168541.030          48.000    35943791.166   144730748.120          49.000  
C14  22084498.473   114999748.985          47.000    22084534.157    88925222.147          51.000  
C16  37394037.299   194720599.450          46.000    37394078.023   150570477.405          45.000  
C24  24055545.447   125263595.921          46.000                                                  
C26  24724188.901   128745379.378          43.000                                                  
C27  24728980.962   128770320.071          40.000                                                  
C28  23170094.725   120652744.416          48.000                                                  
C33  22150316.303   115342500.851          50.000                                                  
R01  20017338.635   107004168.947          48.000    20017376.446    83225640.455          44.000  
R02  23175298.881   123667879.096          44.000    23175340.409    96186284.387          40.000  
R08  21047603.117   112708928.925          46.000    21047639.427    87662568.256          43.000  
R09  23457204.894   125260166.098          40.000    23457242.330    97424744.385          36.000  
R10  22059985.997   117592203.689          47.000                                                  
R17  22621101.194   121050106.130          43.000    22621144.080    94150245.873          40.000  
R23  21398784.956   114468993.326          45.000                                                  
R24  20002824.128   106964109.500          51.000    20002860.473    83194456.302          47.000  
> 2023 10 19 02 22 21.0000000  0 31                     
G05  22460808.893   118032260.410          45.000    22460847.454    91973284.290          40.000  
G13  21636843.745   113702344.650          46.000                                                  
G15  19892364.118   104535104.953          50.000    19892399.463    81456068.089          44.000  
G18  20787508.445   109239118.864          46.000    20787545.059    85121533.666          43.000  
G23  22075908.244   116009728.123          47.000    22075945.876    90397326.394          43.000  
G24  21458197.616   112763652.540          45.000    21458238.876    87867991.000          43.000  
G29  24797236.949   130310185.552          40.000    24797282.318   101540670.164          35.000  
C01  37782784.666   196744777.012          44.000    37782822.817   152135720.467          44.000  
C02  38196209.082   198897602.232          41.000    38196242.033   153800427.578          43.000  
C03  37456160.048   195043975.729          45.000    37456195.035   150820500.975          45.000  
C04  38770787.194   201889554.065          40.000    38770827.757   156114008.248          44.000  
C05  39816273.172   207333655.520          34.000    39816311.840   160323612.983          40.000  
C06  37949029.872   197610594.896          43.000    37949064.073   152805177.294          43.000  
C08  35801011.990   186425258.107          47.000    35801045.048   144155959.199          49.000  
C09  38974538.157   202950668.452          39.000    38974576.933   156934488.733          42.000  
C13  35943665.350   187168100.145          48.000    35943706.359   144730407.193          49.000  
C14  22084704.360   115000821.833          47.000    22084740.134    88926051.728          51.000  
C16  37393816.831   194719452.258          45.000    37393857.555   150569590.322          45.000  
C24  24055128.741   125261425.723          45.000                                                  
C26  24724232.716   128745606.146          43.000                                                  
C27  24728708.638   128768903.541          40.000                                                  
C28  23170318.785   120653910.316          48.000                                                  
C33  22150279.671   115342310.317          50.000                                                  
R01  20017206.154   107003460.414          48.000    20017244.036    83225089.383          44.000  
R02  23174797.298   123665199.967          45.000    23174838.790    96184200.620          40.000  
R08  21048010.728   112711110.496          46.000    21048046.662    87664265.036          43.000  
R09  23457529.181   125261902.398          40.000    23457566.742    97426094.845          35.000  
R10  22059782.898   117591121.520          48.000                                                  
R17  22620465.754   121046706.199          43.000    22620508.497    94147601.480          40.000  
R23  21399523.607   114472946.276          45.000                                                  
R24  20002875.841   106964385.764          51.000    20002911.847    83194671.174          47.000  
> 2023 10 19 02 22 22.0000000  0 31                     
G05  22461268.752   118034676.239          45.000    22461307.153    91975166.763          40.000  
G13  21637371.686   113705118.921          46.000                                                  
G15  19892480.373   104535716.178          50.000    19892515.701    81456544.375          44.000  
G18  20787353.932   109238306.204          46.000    20787390.206    85120900.427          43.000  
G23  22075452.280   116007332.827          47.000    22075490.180    90395459.945          43.000  
G24  21457651.879   112760785.120          45.000    21457693.245    87865756.638          43.000  
G29  24797850.196   130313408.730          40.000    24797895.958   101543181.724          34.000  
C01  37782790.063   196744804.606          44.000    37782828.142   152135741.807          44.000  
C02  38196206.509   198897588.528          41.000    38196239.513   153800416.986          43.000  
C03  37456164.640   195043999.791          46.000    37456199.788   150820519.585          45.000  
C04  38770794.110   201889589.115          40.000    38770834.494   156114035.354          44.000  
C05  39816266.042   207333619.382          34.000    39816304.925   160323585.039          40.000  
C06  37948776.936   197609277.173          43.000    37948810.994   152804158.351          43.000  
C08  35800959.062   186424982.067          47.000    35800992.030   144155745.740          49.000  
C09  38974288.044   202949365.544          39.000    38974326.302   156933481.221          42.000  
C13  35943580.704   187167659.688          48.000    35943621.785   144730066.605          49.000  
C14  22084910.604   115001895.255          47.000    22084946.271    88926881.768          51.000  
C16  37393596.792   194718305.599          45.000    37393637.569   150568703.650          45.000  
C24  24054712.143   125259256.263          46.000                                                  
C26  24724276.406   128745833.866          43.000                                                  
C27  24728436.529   128767487.936          40.000                                                  
C28  23170542.862   120655077.138          48.000                                                  
C33  22150243.219   115342120.396          50.000                                                  
R01  20017074.155   107002752.631          48.000    20017111.823    83224538.880          44.000  
R02  23174295.875   123662521.452          45.000    23174337.296    96182117.340          39.000  
R08  21048418.374   112713292.632          46.000    21048454.255    87665962.251          43.000  
R09  23457854.451   125263639.830          40.000    23457890.082    97427446.151          35.000  
R10  22059579.763   117590040.559          48.000                                                  
R17  22619830.993   121043307.210          44.000    22619873.289    94144957.843          41.000  
R23  21400262.831   114476900.104          45.000                                                  
R24  20002927.625   106964663.365          51.000    20002963.470    83194887.077          47.000  
> 2023 10 19 02 22 23.0000000  0 31                     
G05  22461728.468   118037092.437          45.000    22461767.316    91977049.501          40.000  
G13  21637899.662   113707893.580          46.000                                                  
G15  19892596.844   104536328.001          50.000    19892632.171    81457021.118          44.000  
G18  20787199.561   109237494.324          46.000    20787235.532    85120267.784          43.000  
G23  22074996.602   116004937.795          46.000    22075034.377    90393593.686          43.000  
G24  21457106.337   112757918.310          45.000    21457147.668    87863522.772          43.000  
G29  24798463.514   130316632.019          40.000    24798509.152   101545693.362          35.000  
C01  37782795.370   196744832.347          44.000    37782833.341   152135763.248          44.000  
C02  38196203.847   198897574.931          41.000    38196236.672   153800406.474          43.000  
C03  37456169.232   195044023.984          45.000    37456204.381   150820538.302          45.000  
C04  38770800.936   201889624.287          40.000    38770841.266   156114062.547          44.000  
C05  39816259.020   207333583.349          34.000    39816298.063   160323557.171          40.000  
C06  37948523.803   197607959.699          43.000    37948558.058   152803139.588          43.000  
C08  35800906.027   186424706.200          47.000    35800939.031   144155532.423          49.000  
C09  38974037.610   202948062.842          38.000    38974076.117   156932473.894          42.000  
C13  35943496.166   187167219.390          48.000    35943537.247   144729726.137          49.000  
C14  22085116.991   115002968.973          47.000    22085152.354    88927712.034          51.000  
C16  37393376.521   194717159.184          45.000    37393417.369   150567817.167          45.000  
C24  24054295.723   125257087.266          45.000                                                  
C26  24724320.274   128746062.251          43.000                                                  
C27  24728164.598   128766072.959          40.000                                                  
C28  23170766.904   120656244.599          48.000                                                  
C33  22150206.748   115341930.812          50.000                                                  
R01  20016941.996   107002045.304          48.000    20016979.235    83223988.739          44.000  
R02  23173795.346   123659843.220          45.000    23173834.694    96180034.273          39.000  
R08  21048826.020   112715475.059          46.000    21048861.829    87667659.694          43.000  
R09  23458179.756   125265378.128          39.000    23458215.762    97428798.146          35.000  
R10  22059377.200   117588960.533          48.000                                                  
R17  22619195.660   121039908.918          43.000    22619238.331    94142314.717          41.000  
R23  21401001.519   114480854.508          45.000                                                  
R24  20002979.803   106964942.036          52.000    20003015.451    83195103.825          47.000  
> 2023 10 19 02 22 24.0000000  0 31                     
G05  22462188.095   118039508.697          45.000    22462227.211    91978932.306          40.000  
G13  21638427.584   113710668.336          46.000                                                  
G15  19892713.350   104536940.119          50.000    19892748.641    81457498.097          44.000  
G18  20787045.155   109236682.923          46.000    20787081.250    85119635.525          43.000  
G23  22074540.746   116002542.745          47.000    22074578.628    90391727.423          43.000  
G24  21456561.011   112755051.818          45.000    21456602.234    87861289.141          43.000  
G29  24799076.636   130319855.138          40.000    24799121.791   101548204.890          35.000  
C01  37782800.605   196744859.930          44.000    37782838.684   152135784.580          44.000  
C02  38196201.238   198897561.218          41.000    38196233.938   153800395.854          43.000  
C03  37456173.985   195044048.031          46.000    37456209.062   150820556.899          45.000  
C04  38770807.511   201889659.308          40.000    38770847.895   156114089.636          44.000  
C05  39816251.979   207333547.141          34.000    39816291.202   160323529.180          40.000  
C06  37948271.082   197606642.162          43.000    37948305.283   152802120.800          43.000  
C08  35800852.902   186424430.209          47.000    35800886.120   144155319.000          49.000  
C09  38973786.943   202946760.041          38.000    38973826.040   156931466.506          42.000  
C13  35943411.628   187166778.973          48.000    35943452.655   144729385.577          49.000  
C14  22085323.182   115004042.708          47.000    22085358.634    88928542.317          51.000  
C16  37393156.410   194716012.745          45.000    37393197.187   150566930.668          45.000  
C24  24053879.250   125254918.435          45.000                                                  
C26  24724364.232   128746291.025          43.000                                                  
C27  24727892.703   128764658.308          40.000                                                  
C28  23170991.357   120657412.421          48.000                                                  
C33  22150170.420   115341741.283          50.000                                                  
R01  20016809.354   107001338.147          48.000    20016847.344    83223438.733          44.000  
R02  23173294.138   123657164.946          45.000    23173331.984    96177951.169          39.000  
R08  21049233.934   112717657.474          46.000    21049269.440    87669357.118          43.000  
R09  23458503.847   125267116.974          39.000    23458540.478    97430150.638          35.000  
R10  22059174.512   117587881.132          48.000                                                  
R17  22618560.505   121036510.986          43.000    22618604.070    94139671.893          41.000  
R23  21401741.385   114484809.203          45.000                                                  
R24  20003032.087   106965221.491          52.000    20003067.718    83195321.177          47.000  
> 2023 10 19 02 22 25.0000000  0 31                     
G05  22462647.919   118041925.462          45.000    22462687.124    91980815.492          40.000  
G13  21638955.721   113713443.602          46.000                                                  
G15  19892830.017   104537552.975          50.000    19892865.236    81457975.646          44.000  
G18  20786890.999   109235872.437          46.000    20786926.969    85119003.983          43.000  
G23  22074085.014   116000148.091          47.000    22074122.950    90389861.459          43.000  
G24  21456015.630   112752186.059          45.000    21456057.140    87859056.096          43.000  
G29  24799689.830   130323078.486          40.000    24799735.485   101550716.585          34.000  
C01  37782806.073   196744887.777          44.000    37782844.045   152135806.118          44.000  
C02  38196198.629   198897547.752          41.000    38196231.347   153800385.446          43.000  
C03  37456178.631   195044072.337          46.000    37456213.726   150820575.687          45.000  
C04  38770814.230   201889694.606          40.000    38770854.703   156114116.930          44.000  
C05  39816245.189   207333511.222          34.000    39816284.161   160323501.403          40.000  
C06  37948017.806   197605325.008          43.000    37948052.275   152801102.282          43.000  
C08  35800800.224   186424154.512          47.000    35800833.175   144155105.829          49.000  
C09  38973536.598   202945457.624          38.000    38973576.035   156930459.376          42.000  
C13  35943327.036   187166338.850          48.000    35943368.045   144729045.248          49.000  
C14  22085529.373   115005116.879          47.000    22085564.932    88929372.928          51.000  
C16  37392936.282   194714866.691          45.000    37392977.112   150566044.464          45.000  
C24  24053462.759   125252750.194          45.000                                                  
C26  24724408.440   128746520.582          43.000                                                  
C27  24727621.237   128763244.436          40.000                                                  
C28  23171215.613   120658581.017          48.000                                                  
C33  22150134.039   115341552.223          50.000                                                  
R01  20016676.873   107000631.585          48.000    20016715.846    83222889.180          44.000  
R02  23172792.465   123654487.108          45.000    23172829.847    96175868.415          39.000  
R08  21049641.848   112719840.307          46.000    21049676.818    87671054.871          43.000  
R09  23458830.403   125268856.863          40.000    23458866.320    97431503.862          35.000  
R10  22058972.341   117586802.806          48.000                                                  
R17  22617925.797   121033113.841          43.000    22617969.398    94137029.657          41.000  
R23  21402480.734   114488764.602          45.000                                                  
R24  20003084.426   106965502.165          52.000    20003120.074    83195539.475          47.000  
> 2023 10 19 02 22 26.0000000  0 31                     
G05  22463107.617   118044341.458          45.000    22463146.876    91982698.079          40.000  
G13  21639483.715   113716218.135          46.000                                                  
G15  19892946.594   104538165.274          50.000    19892981.921    81458452.766          44.000  
G18  20786736.771   109235061.584          46.000    20786772.492    85118372.145          43.000  
G23  22073629.265   115997752.575          46.000    22073666.950    90387994.818          43.000  
G24  21455470.303   112749319.787          45.000    21455511.652    87856822.632          43.000  
G29  24800302.701   130326300.821          40.000    24800349.125   101553227.459          34.000  
C01  37782811.202   196744914.622          44.000    37782849.245   152135826.882          44.000  
C02  38196195.841   198897533.298          41.000    38196228.631   153800374.278          43.000  
C03  37456183.188   195044095.669          45.000    37456218.104   150820593.722          45.000  
C04  38770820.895   201889728.897          40.000    38770861.422   156114143.440          44.000  
C05  39816238.077   207333473.293          34.000    39816277.175   160323472.874          40.000  
C06  37947764.656   197604006.953          43.000    37947799.339   152800083.085          43.000  
C08  35800746.742   186423877.881          47.000    35800779.907   144154891.911          49.000  
C09  38973286.235   202944154.273          38.000    38973325.601   156929451.539          42.000  
C13  35943242.337   187165897.776          48.000    35943283.310   144728704.177          49.000  
C14  22085735.402   115006190.225          47.000    22085771.123    88930202.904          51.000  
C16  37392715.760   194713719.764          45.000    37392756.519   150565157.598          45.000  
C24  24053046.357   125250581.276          45.000                                                  
C26  24724452.469   128746749.692          43.000                                                  
C27  24727349.931   128761830.070          40.000                                                  
C28  23171439.976   120659749.127          48.000                                                  
C33  22150097.586   115341362.366          50.000                                                  
R01  20016544.500   106999924.323          48.000    20016583.579    83222339.085          44.000  
R02  23172290.292   123651808.426          45.000    23172328.299    96173784.986          39.000  
R08  21050049.208   112722022.258          46.000    21050084.088    87672751.944          43.000  
R09  23459157.460   125270596.479          40.000    23459191.375    97432856.889          35.000  
R10  22058770.457   117585724.268          48.000                                                  
R17  22617291.143   121029716.218          43.000    22617335.441    94134387.075          41.000  
R23  21403219.886   114492719.416          45.000                                                  
R24  20003137.014   106965782.741          52.000    20003172.895    83195757.702          47.000  
> 2023 10 19 02 22 27.0000000  0 31                     
G05  22463567.602   118046758.446          45.000    22463606.932    91984581.440          40.000  
G13  21640011.905   113718993.677          46.000                                                  
G15  19893063.368   104538778.794          50.000    19893098.534    81458930.820          44.000  
G18  20786582.687   109234252.122          46.000    20786618.532    85117741.405          43.000  
G23  22073173.640   115995357.939          47.000    22073211.165    90386128.868          43.000  
G24  21454925.084   112746454.738          45.000    21454966.522    87854590.122          43.000  
G29  24800916.002   130329523.911          40.000    24800963.248   101555738.962          35.000  
C01  37782816.652   196744942.225          44.000    37782854.588   152135848.216          44.000  
C02  38196193.054   198897519.593          41.000    38196226.147   153800363.665          43.000  
C03  37456187.780   195044119.722          45.000    37456222.661   150820612.328          45.000  
C04  38770827.739   201889763.939          40.000    38770868.105   156114170.532          44.000  
C05  39816231.412   207333437.149          34.000    39816270.081   160323444.894          40.000  
C06  37947511.720   197602689.733          43.000    37947546.171   152799064.524          43.000  
C08  35800693.975   186423602.058          47.000    35800727.015   144154678.619          49.000  
C09  38973036.230   202942851.746          38.000    38973075.845   156928444.346          42.000  
C13  35943157.816   187165457.443          48.000    35943198.879   144728363.688          49.000  
C14  22085941.629   115007264.487          47.000    22085977.367    88931033.587          51.000  
C16  37392495.953   194712573.718          45.000    37392536.623   150564271.387          45.000  
C24  24052629.991   125248413.451          45.000                                                  
C26  24724496.677   128746980.098          43.000                                                  
C27  24727078.251   128760416.939          40.000                                                  
C28  23171664.697   120660918.502          48.000                                                  
C33  22150061.276   115341173.459          50.000                                                  
R01  20016412.305   106999218.152          48.000    20016451.527    83221789.843          44.000  
R02  23171787.993   123649130.703          45.000    23171826.698    96171702.313          39.000  
R08  21050457.033   112724205.082          46.000    21050491.806    87674449.682          43.000  
R09  23459483.945   125272337.594          40.000    23459518.432    97434211.092          36.000  
R10  22058568.537   117584647.308          47.000                                                  
R17  22616656.400   121026319.936          43.000    22616700.322    94131745.523          41.000  
R23  21403959.467   114496675.440          45.000                                                  
R24  20003189.924   106966064.974          52.000    20003225.627    83195977.219          47.000  
> 2023 10 19 02 22 28.0000000  0 31                     
G05  22464027.425   118049175.413          45.000    22464066.827    91986464.784          40.000  
G13  21640540.149   113721769.217          46.000                                                  
G15  19893180.178   104539392.540          50.000    19893215.451    81459409.070          44.000  
G18  20786428.692   109233443.066          46.000    20786464.733    85117110.975          43.000  
G23  22072717.837   115992963.185          47.000    22072755.451    90384262.824          43.000  
G24  21454379.918   112743589.909          45.000    21454421.106    87852357.797          43.000  
G29  24801529.124   130332746.683          40.000    24801576.638   101558250.223          35.000  
C01  37782821.709   196744969.564          44.000    37782859.698   152135869.358          44.000  
C02  38196190.463   198897505.651          41.000    38196223.592   153800352.879          43.000  
C03  37456192.337   195044143.534          45.000    37456227.182   150820630.736          45.000  
C04  38770834.190   201889798.733          40.000    38770874.949   156114197.428          44.000  
C05  39816224.175   207333401.756          34.000    39816263.255   160323416.739          40.000  
C06  37947258.730   197601372.378          43.000    37947293.235   152798045.857          43.000  
C08  35800640.940   186423326.027          47.000    35800673.854   144154465.173          49.000  
C09  38972786.260   202941549.032          38.000    38972825.876   156927436.999          42.000  
C13  35943073.171   187165016.907          48.000    35943114.198   144728023.040          49.000  
C14  22086147.962   115008338.670          47.000    22086183.611    88931864.212          51.000  
C16  37392275.789   194711427.535          45.000    37392316.459   150563385.095          45.000  
C24  24052213.678   125246245.684          46.000                                                  
C26  24724540.617   128747210.771          43.000                                                  
C27  24726806.641   128759004.079          40.000                                                  
C28  23171889.436   120662088.135          48.000                                                  
C33  22150024.931   115340984.510          50.000                                                  
R01  20016280.574   106998512.037          48.000    20016319.457    83221240.647          44.000  
R02  23171285.767   123646452.888          45.000    23171324.167    96169619.601          39.000  
R08  21050864.375   112726387.781          46.000    21050899.541    87676147.334          43.000  
R09  23459809.769   125274079.132          40.000    23459846.114    97435565.634          36.000  
R10  22058366.903   117583570.889          47.000                                                  
R17  22616021.871   121022923.938          43.000    22616065.918    94129104.196          41.000  
R23  21404699.281   114500631.628          45.000                                                  
R24  20003242.978   106966347.881          51.000    20003278.644    83196197.244          47.000  
> 2023 10 19 02 22 29.0000000  0 31                     
G05  22464487.356   118051592.900          45.000    22464526.793    91988348.531          40.000  
G13  21641068.429   113724545.299          46.000                                                  
G15  19893297.166   104540007.005          50.000    19893332.422    81459887.874          44.000  
G18  20786274.821   109232634.921          46.000    20786310.953    85116481.250          43.000  
G23  22072262.195   115990568.851          47.000    22072299.845    90382397.109          43.000  
G24  21453835.002   112740725.841          45.000    21453876.065    87850126.056          43.000  
G29  24802142.532   130335969.761          40.000    24802190.117   101560761.666          35.000  
C01  37782827.069   196744997.179          44.000    37782864.952   152135890.712          44.000  
C02  38196188.104   198897491.984          41.000    38196221.126   153800342.327          43.000  
C03  37456196.822   195044167.625          45.000    37456231.756   150820649.360          45.000  
C04  38770840.873   201889833.783          40.000    38770881.686   156114224.545          44.000  
C05  39816217.385   207333365.597          34.000    39816256.429   160323388.785          40.000  
C06  37947005.776   197600055.390          43.000    37947040.388   152797027.479          43.000  
C08  35800588.137   186423050.306          47.000    35800620.873   144154251.971          49.000  
C09  38972536.326   202940246.682          38.000    38972576.192   156926429.943          42.000  
C13  35942988.561   187164576.708          48.000    35943029.659   144727682.641          49.000  
C14  22086354.457   115009413.301          47.000    22086389.945    88932695.178          51.000  
C16  37392055.982   194710281.751          45.000    37392096.545   150562499.100          45.000  
C24  24051797.294   125244078.527          45.000                                                  
C26  24724584.861   128747442.265          43.000                                                  
C27  24726535.997   128757591.981          40.000                                                  
C28  23172114.264   120663258.554          48.000                                                  
C33  22149988.817   115340796.042          50.000                                                  
R01  20016148.593   106997806.525          48.000    20016187.137    83220691.916          44.000  
R02  23170783.665   123643775.514          45.000    23170822.584    96167537.194          39.000  
R08  21051271.985   112728570.889          45.000    21051306.776    87677845.300          43.000  
R09  23460135.878   125275821.724          40.000    23460172.367    97436920.980          36.000  
R10  22058165.394   117582495.554          47.000                                                  
R17  22615387.342   121019528.747          43.000    22615431.460    94126463.494          41.000  
R23  21405439.523   114504588.547          45.000                                                  
R24  20003296.138   106966631.986          51.000    20003331.894    83196418.217          47.000  
> 2023 10 19 02 22 30.0000000  0 31                     
G05  22464947.412   118054010.416          45.000    22464986.867    91990232.305          40.000  
G13  21641596.673   113727321.425          46.000                                                  
G15  19893414.084   104540621.730          50.000    19893449.321    81460366.874          44.000  
